[
  {
    "storeName": "Agawam Pizza #01",
    "storeRating": 4.1,
    "storeId": "01001",
    "storeState": "MA",
    "storeMarketSize": 16769,
    "storeLat": 42.062368,
    "storeLong": -72.625754
  },
  {
    "storeName": "Amherst Pizza #02",
    "storeRating": 4.9,
    "storeId": "01002",
    "storeState": "MA",
    "storeMarketSize": 29049,
    "storeLat": 42.364061,
    "storeLong": -72.458739
  },
  {
    "storeName": "Amherst Pizza #03",
    "storeRating": 4.7,
    "storeId": "01003",
    "storeState": "MA",
    "storeMarketSize": 10372,
    "storeLat": 42.389941,
    "storeLong": -72.524108
  },
  {
    "storeName": "Belchertown Pizza #07",
    "storeRating": 4.8,
    "storeId": "01007",
    "storeState": "MA",
    "storeMarketSize": 14649,
    "storeLat": 42.27901,
    "storeLong": -72.400468
  },
  {
    "storeName": "Chicopee Pizza #13",
    "storeRating": 4.6,
    "storeId": "01013",
    "storeState": "MA",
    "storeMarketSize": 23188,
    "storeLat": 42.154904,
    "storeLong": -72.602804
  },
  {
    "storeName": "Chicopee Pizza #20",
    "storeRating": 4.9,
    "storeId": "01020",
    "storeState": "MA",
    "storeMarketSize": 29668,
    "storeLat": 42.172602,
    "storeLong": -72.562073
  },
  {
    "storeName": "Easthampton Pizza #27",
    "storeRating": 4.3,
    "storeId": "01027",
    "storeState": "MA",
    "storeMarketSize": 17660,
    "storeLat": 42.295008,
    "storeLong": -72.751877
  },
  {
    "storeName": "East Longmeadow Pizza #28",
    "storeRating": 4.5,
    "storeId": "01028",
    "storeState": "MA",
    "storeMarketSize": 15720,
    "storeLat": 42.062378,
    "storeLong": -72.498111
  },
  {
    "storeName": "Feeding Hills Pizza #30",
    "storeRating": 4.5,
    "storeId": "01030",
    "storeState": "MA",
    "storeMarketSize": 11669,
    "storeLat": 42.072925,
    "storeLong": -72.686972
  },
  {
    "storeName": "Holyoke Pizza #40",
    "storeRating": 4.5,
    "storeId": "01040",
    "storeState": "MA",
    "storeMarketSize": 39880,
    "storeLat": 42.211656,
    "storeLong": -72.642448
  },
  {
    "storeName": "Ludlow Pizza #56",
    "storeRating": 4.7,
    "storeId": "01056",
    "storeState": "MA",
    "storeMarketSize": 21103,
    "storeLat": 42.183577,
    "storeLong": -72.457812
  },
  {
    "storeName": "Northampton Pizza #60",
    "storeRating": 4.9,
    "storeId": "01060",
    "storeState": "MA",
    "storeMarketSize": 15284,
    "storeLat": 42.321488,
    "storeLong": -72.630588
  },
  {
    "storeName": "Florence Pizza #62",
    "storeRating": 4.7,
    "storeId": "01062",
    "storeState": "MA",
    "storeMarketSize": 11150,
    "storeLat": 42.328308,
    "storeLong": -72.703924
  },
  {
    "storeName": "South Hadley Pizza #75",
    "storeRating": 4.6,
    "storeId": "01075",
    "storeState": "MA",
    "storeMarketSize": 17527,
    "storeLat": 42.256208,
    "storeLong": -72.58103
  },
  {
    "storeName": "Ware Pizza #82",
    "storeRating": 4.3,
    "storeId": "01082",
    "storeState": "MA",
    "storeMarketSize": 10322,
    "storeLat": 42.293533,
    "storeLong": -72.278599
  },
  {
    "storeName": "Westfield Pizza #85",
    "storeRating": 4.2,
    "storeId": "01085",
    "storeState": "MA",
    "storeMarketSize": 41117,
    "storeLat": 42.153503,
    "storeLong": -72.771602
  },
  {
    "storeName": "West Springfield Pizza #89",
    "storeRating": 4.8,
    "storeId": "01089",
    "storeState": "MA",
    "storeMarketSize": 28391,
    "storeLat": 42.125451,
    "storeLong": -72.649734
  },
  {
    "storeName": "Wilbraham Pizza #95",
    "storeRating": 4.2,
    "storeId": "01095",
    "storeState": "MA",
    "storeMarketSize": 14319,
    "storeLat": 42.138499,
    "storeLong": -72.420715
  },
  {
    "storeName": "Springfield Pizza #04",
    "storeRating": 4.4,
    "storeId": "01104",
    "storeState": "MA",
    "storeMarketSize": 22865,
    "storeLat": 42.134009,
    "storeLong": -72.565378
  },
  {
    "storeName": "Springfield Pizza #05",
    "storeRating": 4.2,
    "storeId": "01105",
    "storeState": "MA",
    "storeMarketSize": 12350,
    "storeLat": 42.099958,
    "storeLong": -72.580765
  },
  {
    "storeName": "Longmeadow Pizza #06",
    "storeRating": 4.1,
    "storeId": "01106",
    "storeState": "MA",
    "storeMarketSize": 16021,
    "storeLat": 42.047565,
    "storeLong": -72.57113
  },
  {
    "storeName": "Springfield Pizza #07",
    "storeRating": 4.6,
    "storeId": "01107",
    "storeState": "MA",
    "storeMarketSize": 11611,
    "storeLat": 42.12106,
    "storeLong": -72.607068
  },
  {
    "storeName": "Springfield Pizza #08",
    "storeRating": 4.3,
    "storeId": "01108",
    "storeState": "MA",
    "storeMarketSize": 26688,
    "storeLat": 42.080692,
    "storeLong": -72.560791
  },
  {
    "storeName": "Springfield Pizza #09",
    "storeRating": 4.1,
    "storeId": "01109",
    "storeState": "MA",
    "storeMarketSize": 30250,
    "storeLat": 42.119674,
    "storeLong": -72.549726
  },
  {
    "storeName": "Springfield Pizza #18",
    "storeRating": 4.9,
    "storeId": "01118",
    "storeState": "MA",
    "storeMarketSize": 14071,
    "storeLat": 42.094194,
    "storeLong": -72.525081
  },
  {
    "storeName": "Springfield Pizza #19",
    "storeRating": 4.9,
    "storeId": "01119",
    "storeState": "MA",
    "storeMarketSize": 14152,
    "storeLat": 42.124978,
    "storeLong": -72.51121
  },
  {
    "storeName": "Pittsfield Pizza #01",
    "storeRating": 4.3,
    "storeId": "01201",
    "storeState": "MA",
    "storeMarketSize": 46504,
    "storeLat": 42.448236,
    "storeLong": -73.273727
  },
  {
    "storeName": "North Adams Pizza #47",
    "storeRating": 4.3,
    "storeId": "01247",
    "storeState": "MA",
    "storeMarketSize": 16087,
    "storeLat": 42.698526,
    "storeLong": -73.0843
  },
  {
    "storeName": "Greenfield Pizza #01",
    "storeRating": 4.2,
    "storeId": "01301",
    "storeState": "MA",
    "storeMarketSize": 17700,
    "storeLat": 42.626761,
    "storeLong": -72.60153
  },
  {
    "storeName": "Athol Pizza #31",
    "storeRating": 4.2,
    "storeId": "01331",
    "storeState": "MA",
    "storeMarketSize": 13263,
    "storeLat": 42.562408,
    "storeLong": -72.19108
  },
  {
    "storeName": "Fitchburg Pizza #20",
    "storeRating": 4.1,
    "storeId": "01420",
    "storeState": "MA",
    "storeMarketSize": 40337,
    "storeLat": 42.584925,
    "storeLong": -71.816862
  },
  {
    "storeName": "Gardner Pizza #40",
    "storeRating": 4.9,
    "storeId": "01440",
    "storeState": "MA",
    "storeMarketSize": 20347,
    "storeLat": 42.584206,
    "storeLong": -71.988737
  },
  {
    "storeName": "Groton Pizza #50",
    "storeRating": 4.4,
    "storeId": "01450",
    "storeState": "MA",
    "storeMarketSize": 10646,
    "storeLat": 42.61176,
    "storeLong": -71.565269
  },
  {
    "storeName": "Leominster Pizza #53",
    "storeRating": 4.1,
    "storeId": "01453",
    "storeState": "MA",
    "storeMarketSize": 40883,
    "storeLat": 42.519977,
    "storeLong": -71.763202
  },
  {
    "storeName": "Lunenburg Pizza #62",
    "storeRating": 4.5,
    "storeId": "01462",
    "storeState": "MA",
    "storeMarketSize": 10086,
    "storeLat": 42.582607,
    "storeLong": -71.720464
  },
  {
    "storeName": "Pepperell Pizza #63",
    "storeRating": 4.8,
    "storeId": "01463",
    "storeState": "MA",
    "storeMarketSize": 11497,
    "storeLat": 42.670643,
    "storeLong": -71.602858
  },
  {
    "storeName": "Winchendon Pizza #75",
    "storeRating": 4.7,
    "storeId": "01475",
    "storeState": "MA",
    "storeMarketSize": 10270,
    "storeLat": 42.66816,
    "storeLong": -72.055644
  },
  {
    "storeName": "Auburn Pizza #01",
    "storeRating": 4.3,
    "storeId": "01501",
    "storeState": "MA",
    "storeMarketSize": 16075,
    "storeLat": 42.198708,
    "storeLong": -71.846006
  },
  {
    "storeName": "Charlton Pizza #07",
    "storeRating": 4,
    "storeId": "01507",
    "storeState": "MA",
    "storeMarketSize": 12981,
    "storeLat": 42.133935,
    "storeLong": -71.968025
  },
  {
    "storeName": "Clinton Pizza #10",
    "storeRating": 4.2,
    "storeId": "01510",
    "storeState": "MA",
    "storeMarketSize": 13606,
    "storeLat": 42.411887,
    "storeLong": -71.690005
  },
  {
    "storeName": "Holden Pizza #20",
    "storeRating": 4.6,
    "storeId": "01520",
    "storeState": "MA",
    "storeMarketSize": 13997,
    "storeLat": 42.336372,
    "storeLong": -71.850626
  },
  {
    "storeName": "Millbury Pizza #27",
    "storeRating": 4.8,
    "storeId": "01527",
    "storeState": "MA",
    "storeMarketSize": 13246,
    "storeLat": 42.192246,
    "storeLong": -71.777649
  },
  {
    "storeName": "Northborough Pizza #32",
    "storeRating": 4.5,
    "storeId": "01532",
    "storeState": "MA",
    "storeMarketSize": 14155,
    "storeLat": 42.323342,
    "storeLong": -71.646236
  },
  {
    "storeName": "Oxford Pizza #40",
    "storeRating": 4.2,
    "storeId": "01540",
    "storeState": "MA",
    "storeMarketSize": 11291,
    "storeLat": 42.116263,
    "storeLong": -71.857465
  },
  {
    "storeName": "Shrewsbury Pizza #45",
    "storeRating": 4.4,
    "storeId": "01545",
    "storeState": "MA",
    "storeMarketSize": 35299,
    "storeLat": 42.284767,
    "storeLong": -71.714228
  },
  {
    "storeName": "Southbridge Pizza #50",
    "storeRating": 4.1,
    "storeId": "01550",
    "storeState": "MA",
    "storeMarketSize": 16719,
    "storeLat": 42.059737,
    "storeLong": -72.033908
  },
  {
    "storeName": "Spencer Pizza #62",
    "storeRating": 4.4,
    "storeId": "01562",
    "storeState": "MA",
    "storeMarketSize": 11688,
    "storeLat": 42.247211,
    "storeLong": -71.991867
  },
  {
    "storeName": "Uxbridge Pizza #69",
    "storeRating": 4.7,
    "storeId": "01569",
    "storeState": "MA",
    "storeMarketSize": 13569,
    "storeLat": 42.05593,
    "storeLong": -71.631232
  },
  {
    "storeName": "Webster Pizza #70",
    "storeRating": 5,
    "storeId": "01570",
    "storeState": "MA",
    "storeMarketSize": 16767,
    "storeLat": 42.047532,
    "storeLong": -71.846952
  },
  {
    "storeName": "Dudley Pizza #71",
    "storeRating": 4.5,
    "storeId": "01571",
    "storeState": "MA",
    "storeMarketSize": 11390,
    "storeLat": 42.053778,
    "storeLong": -71.935075
  },
  {
    "storeName": "Westborough Pizza #81",
    "storeRating": 5,
    "storeId": "01581",
    "storeState": "MA",
    "storeMarketSize": 18272,
    "storeLat": 42.268426,
    "storeLong": -71.613309
  },
  {
    "storeName": "Worcester Pizza #02",
    "storeRating": 4.8,
    "storeId": "01602",
    "storeState": "MA",
    "storeMarketSize": 22819,
    "storeLat": 42.269189,
    "storeLong": -71.850728
  },
  {
    "storeName": "Worcester Pizza #03",
    "storeRating": 4.6,
    "storeId": "01603",
    "storeState": "MA",
    "storeMarketSize": 19916,
    "storeLat": 42.243826,
    "storeLong": -71.843569
  },
  {
    "storeName": "Worcester Pizza #04",
    "storeRating": 4.6,
    "storeId": "01604",
    "storeState": "MA",
    "storeMarketSize": 34677,
    "storeLat": 42.253254,
    "storeLong": -71.767957
  },
  {
    "storeName": "Worcester Pizza #05",
    "storeRating": 4.3,
    "storeId": "01605",
    "storeState": "MA",
    "storeMarketSize": 26221,
    "storeLat": 42.289683,
    "storeLong": -71.787793
  },
  {
    "storeName": "Worcester Pizza #06",
    "storeRating": 4.8,
    "storeId": "01606",
    "storeState": "MA",
    "storeMarketSize": 19077,
    "storeLat": 42.315249,
    "storeLong": -71.795741
  },
  {
    "storeName": "Worcester Pizza #09",
    "storeRating": 4.8,
    "storeId": "01609",
    "storeState": "MA",
    "storeMarketSize": 22421,
    "storeLat": 42.285114,
    "storeLong": -71.829987
  },
  {
    "storeName": "Worcester Pizza #10",
    "storeRating": 4.8,
    "storeId": "01610",
    "storeState": "MA",
    "storeMarketSize": 23945,
    "storeLat": 42.247049,
    "storeLong": -71.808366
  },
  {
    "storeName": "Framingham Pizza #01",
    "storeRating": 4.8,
    "storeId": "01701",
    "storeState": "MA",
    "storeMarketSize": 31217,
    "storeLat": 42.319587,
    "storeLong": -71.4428
  },
  {
    "storeName": "Framingham Pizza #02",
    "storeRating": 5,
    "storeId": "01702",
    "storeState": "MA",
    "storeMarketSize": 37206,
    "storeLat": 42.282379,
    "storeLong": -71.436621
  },
  {
    "storeName": "Acton Pizza #20",
    "storeRating": 4,
    "storeId": "01720",
    "storeState": "MA",
    "storeMarketSize": 21361,
    "storeLat": 42.483953,
    "storeLong": -71.438495
  },
  {
    "storeName": "Ashland Pizza #21",
    "storeRating": 4.3,
    "storeId": "01721",
    "storeState": "MA",
    "storeMarketSize": 16593,
    "storeLat": 42.257755,
    "storeLong": -71.473526
  },
  {
    "storeName": "Bedford Pizza #30",
    "storeRating": 5,
    "storeId": "01730",
    "storeState": "MA",
    "storeMarketSize": 13221,
    "storeLat": 42.499295,
    "storeLong": -71.281889
  },
  {
    "storeName": "Concord Pizza #42",
    "storeRating": 4.5,
    "storeId": "01742",
    "storeState": "MA",
    "storeMarketSize": 17726,
    "storeLat": 42.462911,
    "storeLong": -71.364496
  },
  {
    "storeName": "Holliston Pizza #46",
    "storeRating": 4.3,
    "storeId": "01746",
    "storeState": "MA",
    "storeMarketSize": 13547,
    "storeLat": 42.195951,
    "storeLong": -71.45343
  },
  {
    "storeName": "Hopkinton Pizza #48",
    "storeRating": 4.4,
    "storeId": "01748",
    "storeState": "MA",
    "storeMarketSize": 14925,
    "storeLat": 42.224096,
    "storeLong": -71.540489
  },
  {
    "storeName": "Hudson Pizza #49",
    "storeRating": 4.6,
    "storeId": "01749",
    "storeState": "MA",
    "storeMarketSize": 19063,
    "storeLat": 42.389071,
    "storeLong": -71.545864
  },
  {
    "storeName": "Marlborough Pizza #52",
    "storeRating": 4.8,
    "storeId": "01752",
    "storeState": "MA",
    "storeMarketSize": 38499,
    "storeLat": 42.349617,
    "storeLong": -71.547214
  },
  {
    "storeName": "Maynard Pizza #54",
    "storeRating": 5,
    "storeId": "01754",
    "storeState": "MA",
    "storeMarketSize": 10106,
    "storeLat": 42.425955,
    "storeLong": -71.456256
  },
  {
    "storeName": "Milford Pizza #57",
    "storeRating": 4.8,
    "storeId": "01757",
    "storeState": "MA",
    "storeMarketSize": 28061,
    "storeLat": 42.158692,
    "storeLong": -71.521419
  },
  {
    "storeName": "Natick Pizza #60",
    "storeRating": 4.8,
    "storeId": "01760",
    "storeState": "MA",
    "storeMarketSize": 32786,
    "storeLat": 42.284822,
    "storeLong": -71.348811
  },
  {
    "storeName": "Sudbury Pizza #76",
    "storeRating": 4.8,
    "storeId": "01776",
    "storeState": "MA",
    "storeMarketSize": 17659,
    "storeLat": 42.383367,
    "storeLong": -71.42107
  },
  {
    "storeName": "Wayland Pizza #78",
    "storeRating": 4.5,
    "storeId": "01778",
    "storeState": "MA",
    "storeMarketSize": 13109,
    "storeLat": 42.343687,
    "storeLong": -71.381186
  },
  {
    "storeName": "Woburn Pizza #01",
    "storeRating": 4.9,
    "storeId": "01801",
    "storeState": "MA",
    "storeMarketSize": 38903,
    "storeLat": 42.488769,
    "storeLong": -71.154438
  },
  {
    "storeName": "Burlington Pizza #03",
    "storeRating": 4.7,
    "storeId": "01803",
    "storeState": "MA",
    "storeMarketSize": 24487,
    "storeLat": 42.503227,
    "storeLong": -71.201713
  },
  {
    "storeName": "Andover Pizza #10",
    "storeRating": 4.3,
    "storeId": "01810",
    "storeState": "MA",
    "storeMarketSize": 33201,
    "storeLat": 42.648044,
    "storeLong": -71.161751
  },
  {
    "storeName": "Billerica Pizza #21",
    "storeRating": 4,
    "storeId": "01821",
    "storeState": "MA",
    "storeMarketSize": 30310,
    "storeLat": 42.54933,
    "storeLong": -71.251725
  },
  {
    "storeName": "Chelmsford Pizza #24",
    "storeRating": 4.2,
    "storeId": "01824",
    "storeState": "MA",
    "storeMarketSize": 24911,
    "storeLat": 42.59079,
    "storeLong": -71.355182
  },
  {
    "storeName": "Dracut Pizza #26",
    "storeRating": 4.7,
    "storeId": "01826",
    "storeState": "MA",
    "storeMarketSize": 29422,
    "storeLat": 42.679723,
    "storeLong": -71.30068
  },
  {
    "storeName": "Haverhill Pizza #30",
    "storeRating": 4.4,
    "storeId": "01830",
    "storeState": "MA",
    "storeMarketSize": 25137,
    "storeLat": 42.796313,
    "storeLong": -71.053436
  },
  {
    "storeName": "Haverhill Pizza #32",
    "storeRating": 4.2,
    "storeId": "01832",
    "storeState": "MA",
    "storeMarketSize": 22060,
    "storeLat": 42.791114,
    "storeLong": -71.132859
  },
  {
    "storeName": "Haverhill Pizza #35",
    "storeRating": 4.7,
    "storeId": "01835",
    "storeState": "MA",
    "storeMarketSize": 13682,
    "storeLat": 42.751233,
    "storeLong": -71.0943
  },
  {
    "storeName": "Lawrence Pizza #41",
    "storeRating": 4.1,
    "storeId": "01841",
    "storeState": "MA",
    "storeMarketSize": 47225,
    "storeLat": 42.712015,
    "storeLong": -71.164873
  },
  {
    "storeName": "Lawrence Pizza #43",
    "storeRating": 4.3,
    "storeId": "01843",
    "storeState": "MA",
    "storeMarketSize": 24425,
    "storeLat": 42.689974,
    "storeLong": -71.160383
  },
  {
    "storeName": "Methuen Pizza #44",
    "storeRating": 4,
    "storeId": "01844",
    "storeState": "MA",
    "storeMarketSize": 47249,
    "storeLat": 42.742468,
    "storeLong": -71.179218
  },
  {
    "storeName": "North Andover Pizza #45",
    "storeRating": 4.7,
    "storeId": "01845",
    "storeState": "MA",
    "storeMarketSize": 28352,
    "storeLat": 42.673909,
    "storeLong": -71.091334
  },
  {
    "storeName": "Lowell Pizza #50",
    "storeRating": 4.8,
    "storeId": "01850",
    "storeState": "MA",
    "storeMarketSize": 15237,
    "storeLat": 42.656045,
    "storeLong": -71.303309
  },
  {
    "storeName": "Lowell Pizza #51",
    "storeRating": 4.7,
    "storeId": "01851",
    "storeState": "MA",
    "storeMarketSize": 30190,
    "storeLat": 42.627812,
    "storeLong": -71.33533
  },
  {
    "storeName": "Lowell Pizza #52",
    "storeRating": 4.6,
    "storeId": "01852",
    "storeState": "MA",
    "storeMarketSize": 33508,
    "storeLat": 42.631912,
    "storeLong": -71.296025
  },
  {
    "storeName": "Lowell Pizza #54",
    "storeRating": 4.5,
    "storeId": "01854",
    "storeState": "MA",
    "storeMarketSize": 27606,
    "storeLat": 42.649481,
    "storeLong": -71.348229
  },
  {
    "storeName": "North Billerica Pizza #62",
    "storeRating": 4.3,
    "storeId": "01862",
    "storeState": "MA",
    "storeMarketSize": 10227,
    "storeLat": 42.578543,
    "storeLong": -71.295592
  },
  {
    "storeName": "North Reading Pizza #64",
    "storeRating": 4.2,
    "storeId": "01864",
    "storeState": "MA",
    "storeMarketSize": 14892,
    "storeLat": 42.578222,
    "storeLong": -71.084398
  },
  {
    "storeName": "Reading Pizza #67",
    "storeRating": 4.4,
    "storeId": "01867",
    "storeState": "MA",
    "storeMarketSize": 23956,
    "storeLat": 42.535183,
    "storeLong": -71.105423
  },
  {
    "storeName": "Tewksbury Pizza #76",
    "storeRating": 4.1,
    "storeId": "01876",
    "storeState": "MA",
    "storeMarketSize": 28667,
    "storeLat": 42.611801,
    "storeLong": -71.227571
  },
  {
    "storeName": "Tyngsboro Pizza #79",
    "storeRating": 4.4,
    "storeId": "01879",
    "storeState": "MA",
    "storeMarketSize": 11305,
    "storeLat": 42.667762,
    "storeLong": -71.42882
  },
  {
    "storeName": "Wakefield Pizza #80",
    "storeRating": 4.7,
    "storeId": "01880",
    "storeState": "MA",
    "storeMarketSize": 24733,
    "storeLat": 42.501524,
    "storeLong": -71.067489
  },
  {
    "storeName": "Westford Pizza #86",
    "storeRating": 4.1,
    "storeId": "01886",
    "storeState": "MA",
    "storeMarketSize": 21951,
    "storeLat": 42.585541,
    "storeLong": -71.44025
  },
  {
    "storeName": "Wilmington Pizza #87",
    "storeRating": 4.5,
    "storeId": "01887",
    "storeState": "MA",
    "storeMarketSize": 22325,
    "storeLat": 42.564647,
    "storeLong": -71.164516
  },
  {
    "storeName": "Winchester Pizza #90",
    "storeRating": 4.6,
    "storeId": "01890",
    "storeState": "MA",
    "storeMarketSize": 21382,
    "storeLat": 42.452752,
    "storeLong": -71.144319
  },
  {
    "storeName": "Lynn Pizza #02",
    "storeRating": 4.8,
    "storeId": "01902",
    "storeState": "MA",
    "storeMarketSize": 45139,
    "storeLat": 42.471039,
    "storeLong": -70.941535
  },
  {
    "storeName": "Lynn Pizza #04",
    "storeRating": 4.3,
    "storeId": "01904",
    "storeState": "MA",
    "storeMarketSize": 18203,
    "storeLat": 42.492456,
    "storeLong": -70.97393
  },
  {
    "storeName": "Lynn Pizza #05",
    "storeRating": 4.9,
    "storeId": "01905",
    "storeState": "MA",
    "storeMarketSize": 25251,
    "storeLat": 42.465998,
    "storeLong": -70.975792
  },
  {
    "storeName": "Saugus Pizza #06",
    "storeRating": 4,
    "storeId": "01906",
    "storeState": "MA",
    "storeMarketSize": 26660,
    "storeLat": 42.468432,
    "storeLong": -71.013946
  },
  {
    "storeName": "Swampscott Pizza #07",
    "storeRating": 4,
    "storeId": "01907",
    "storeState": "MA",
    "storeMarketSize": 14027,
    "storeLat": 42.474145,
    "storeLong": -70.906597
  },
  {
    "storeName": "Amesbury Pizza #13",
    "storeRating": 4.2,
    "storeId": "01913",
    "storeState": "MA",
    "storeMarketSize": 16283,
    "storeLat": 42.851293,
    "storeLong": -70.95581
  },
  {
    "storeName": "Beverly Pizza #15",
    "storeRating": 5,
    "storeId": "01915",
    "storeState": "MA",
    "storeMarketSize": 39502,
    "storeLat": 42.570665,
    "storeLong": -70.867583
  },
  {
    "storeName": "Danvers Pizza #23",
    "storeRating": 4.1,
    "storeId": "01923",
    "storeState": "MA",
    "storeMarketSize": 26342,
    "storeLat": 42.574174,
    "storeLong": -70.950516
  },
  {
    "storeName": "Gloucester Pizza #30",
    "storeRating": 4.1,
    "storeId": "01930",
    "storeState": "MA",
    "storeMarketSize": 28789,
    "storeLat": 42.61991,
    "storeLong": -70.681824
  },
  {
    "storeName": "Ipswich Pizza #38",
    "storeRating": 4.2,
    "storeId": "01938",
    "storeState": "MA",
    "storeMarketSize": 13175,
    "storeLat": 42.68386,
    "storeLong": -70.842666
  },
  {
    "storeName": "Lynnfield Pizza #40",
    "storeRating": 4.3,
    "storeId": "01940",
    "storeState": "MA",
    "storeMarketSize": 12108,
    "storeLat": 42.534146,
    "storeLong": -71.038333
  },
  {
    "storeName": "Marblehead Pizza #45",
    "storeRating": 4.4,
    "storeId": "01945",
    "storeState": "MA",
    "storeMarketSize": 19808,
    "storeLat": 42.501835,
    "storeLong": -70.859126
  },
  {
    "storeName": "Newburyport Pizza #50",
    "storeRating": 4.5,
    "storeId": "01950",
    "storeState": "MA",
    "storeMarketSize": 17416,
    "storeLat": 42.812358,
    "storeLong": -70.891095
  },
  {
    "storeName": "Peabody Pizza #60",
    "storeRating": 4.7,
    "storeId": "01960",
    "storeState": "MA",
    "storeMarketSize": 50944,
    "storeLat": 42.534279,
    "storeLong": -70.969782
  },
  {
    "storeName": "Salem Pizza #70",
    "storeRating": 4.9,
    "storeId": "01970",
    "storeState": "MA",
    "storeMarketSize": 41109,
    "storeLat": 42.524435,
    "storeLong": -70.870859
  },
  {
    "storeName": "Bellingham Pizza #19",
    "storeRating": 4.5,
    "storeId": "02019",
    "storeState": "MA",
    "storeMarketSize": 16332,
    "storeLat": 42.076682,
    "storeLong": -71.47449
  },
  {
    "storeName": "Canton Pizza #21",
    "storeRating": 4.5,
    "storeId": "02021",
    "storeState": "MA",
    "storeMarketSize": 21561,
    "storeLat": 42.175737,
    "storeLong": -71.125385
  },
  {
    "storeName": "Dedham Pizza #26",
    "storeRating": 4.1,
    "storeId": "02026",
    "storeState": "MA",
    "storeMarketSize": 24711,
    "storeLat": 42.246872,
    "storeLong": -71.179462
  },
  {
    "storeName": "Foxboro Pizza #35",
    "storeRating": 4.9,
    "storeId": "02035",
    "storeState": "MA",
    "storeMarketSize": 16865,
    "storeLat": 42.061338,
    "storeLong": -71.245802
  },
  {
    "storeName": "Franklin Pizza #38",
    "storeRating": 4.9,
    "storeId": "02038",
    "storeState": "MA",
    "storeMarketSize": 31635,
    "storeLat": 42.084858,
    "storeLong": -71.410571
  },
  {
    "storeName": "Hingham Pizza #43",
    "storeRating": 4.5,
    "storeId": "02043",
    "storeState": "MA",
    "storeMarketSize": 22157,
    "storeLat": 42.216098,
    "storeLong": -70.88127
  },
  {
    "storeName": "Hull Pizza #45",
    "storeRating": 4.1,
    "storeId": "02045",
    "storeState": "MA",
    "storeMarketSize": 10293,
    "storeLat": 42.292253,
    "storeLong": -70.923919
  },
  {
    "storeName": "Mansfield Pizza #48",
    "storeRating": 4.2,
    "storeId": "02048",
    "storeState": "MA",
    "storeMarketSize": 23184,
    "storeLat": 42.017302,
    "storeLong": -71.21641
  },
  {
    "storeName": "Marshfield Pizza #50",
    "storeRating": 4.8,
    "storeId": "02050",
    "storeState": "MA",
    "storeMarketSize": 25429,
    "storeLat": 42.115139,
    "storeLong": -70.710331
  },
  {
    "storeName": "Medfield Pizza #52",
    "storeRating": 4.6,
    "storeId": "02052",
    "storeState": "MA",
    "storeMarketSize": 12024,
    "storeLat": 42.184599,
    "storeLong": -71.305307
  },
  {
    "storeName": "Medway Pizza #53",
    "storeRating": 4.1,
    "storeId": "02053",
    "storeState": "MA",
    "storeMarketSize": 12752,
    "storeLat": 42.156203,
    "storeLong": -71.430345
  },
  {
    "storeName": "Norfolk Pizza #56",
    "storeRating": 4.2,
    "storeId": "02056",
    "storeState": "MA",
    "storeMarketSize": 10981,
    "storeLat": 42.113655,
    "storeLong": -71.334163
  },
  {
    "storeName": "Norwell Pizza #61",
    "storeRating": 4.7,
    "storeId": "02061",
    "storeState": "MA",
    "storeMarketSize": 10506,
    "storeLat": 42.164569,
    "storeLong": -70.818844
  },
  {
    "storeName": "Norwood Pizza #62",
    "storeRating": 4.4,
    "storeId": "02062",
    "storeState": "MA",
    "storeMarketSize": 28602,
    "storeLat": 42.18736,
    "storeLong": -71.195955
  },
  {
    "storeName": "Scituate Pizza #66",
    "storeRating": 4.9,
    "storeId": "02066",
    "storeState": "MA",
    "storeMarketSize": 17656,
    "storeLat": 42.202273,
    "storeLong": -70.758184
  },
  {
    "storeName": "Sharon Pizza #67",
    "storeRating": 4.9,
    "storeId": "02067",
    "storeState": "MA",
    "storeMarketSize": 17486,
    "storeLat": 42.1076,
    "storeLong": -71.181828
  },
  {
    "storeName": "Stoughton Pizza #72",
    "storeRating": 4.2,
    "storeId": "02072",
    "storeState": "MA",
    "storeMarketSize": 26999,
    "storeLat": 42.119006,
    "storeLong": -71.10365
  },
  {
    "storeName": "Walpole Pizza #81",
    "storeRating": 4.7,
    "storeId": "02081",
    "storeState": "MA",
    "storeMarketSize": 18472,
    "storeLat": 42.146694,
    "storeLong": -71.270532
  },
  {
    "storeName": "Westwood Pizza #90",
    "storeRating": 4.4,
    "storeId": "02090",
    "storeState": "MA",
    "storeMarketSize": 14636,
    "storeLat": 42.219645,
    "storeLong": -71.216769
  },
  {
    "storeName": "Wrentham Pizza #93",
    "storeRating": 4.7,
    "storeId": "02093",
    "storeState": "MA",
    "storeMarketSize": 10955,
    "storeLat": 42.052671,
    "storeLong": -71.356858
  },
  {
    "storeName": "Boston Pizza #14",
    "storeRating": 4.7,
    "storeId": "02114",
    "storeState": "MA",
    "storeMarketSize": 11999,
    "storeLat": 42.363174,
    "storeLong": -71.068646
  },
  {
    "storeName": "Boston Pizza #15",
    "storeRating": 4.2,
    "storeId": "02115",
    "storeState": "MA",
    "storeMarketSize": 28441,
    "storeLat": 42.337105,
    "storeLong": -71.105696
  },
  {
    "storeName": "Boston Pizza #16",
    "storeRating": 4.5,
    "storeId": "02116",
    "storeState": "MA",
    "storeMarketSize": 20628,
    "storeLat": 42.350579,
    "storeLong": -71.076397
  },
  {
    "storeName": "Boston Pizza #18",
    "storeRating": 4.1,
    "storeId": "02118",
    "storeState": "MA",
    "storeMarketSize": 26498,
    "storeLat": 42.337582,
    "storeLong": -71.070482
  },
  {
    "storeName": "Roxbury Pizza #19",
    "storeRating": 4.4,
    "storeId": "02119",
    "storeState": "MA",
    "storeMarketSize": 25346,
    "storeLat": 42.324029,
    "storeLong": -71.085017
  },
  {
    "storeName": "Roxbury Crossing Pizza #20",
    "storeRating": 4.5,
    "storeId": "02120",
    "storeState": "MA",
    "storeMarketSize": 15181,
    "storeLat": 42.33209,
    "storeLong": -71.096545
  },
  {
    "storeName": "Dorchester Pizza #21",
    "storeRating": 4.7,
    "storeId": "02121",
    "storeState": "MA",
    "storeMarketSize": 25978,
    "storeLat": 42.306267,
    "storeLong": -71.085897
  },
  {
    "storeName": "Dorchester Pizza #22",
    "storeRating": 4.5,
    "storeId": "02122",
    "storeState": "MA",
    "storeMarketSize": 23479,
    "storeLat": 42.291413,
    "storeLong": -71.042158
  },
  {
    "storeName": "Dorchester Center Pizza #24",
    "storeRating": 4.4,
    "storeId": "02124",
    "storeState": "MA",
    "storeMarketSize": 47783,
    "storeLat": 42.285805,
    "storeLong": -71.070571
  },
  {
    "storeName": "Dorchester Pizza #25",
    "storeRating": 4.3,
    "storeId": "02125",
    "storeState": "MA",
    "storeMarketSize": 33295,
    "storeLat": 42.315682,
    "storeLong": -71.055555
  },
  {
    "storeName": "Mattapan Pizza #26",
    "storeRating": 4.3,
    "storeId": "02126",
    "storeState": "MA",
    "storeMarketSize": 25562,
    "storeLat": 42.274227,
    "storeLong": -71.097423
  },
  {
    "storeName": "Boston Pizza #27",
    "storeRating": 4.3,
    "storeId": "02127",
    "storeState": "MA",
    "storeMarketSize": 31799,
    "storeLat": 42.334992,
    "storeLong": -71.039093
  },
  {
    "storeName": "Boston Pizza #28",
    "storeRating": 4.4,
    "storeId": "02128",
    "storeState": "MA",
    "storeMarketSize": 40508,
    "storeLat": 42.361129,
    "storeLong": -71.006975
  },
  {
    "storeName": "Charlestown Pizza #29",
    "storeRating": 4,
    "storeId": "02129",
    "storeState": "MA",
    "storeMarketSize": 16439,
    "storeLat": 42.379657,
    "storeLong": -71.061487
  },
  {
    "storeName": "Jamaica Plain Pizza #30",
    "storeRating": 5,
    "storeId": "02130",
    "storeState": "MA",
    "storeMarketSize": 35401,
    "storeLat": 42.309174,
    "storeLong": -71.113835
  },
  {
    "storeName": "Roslindale Pizza #31",
    "storeRating": 4.9,
    "storeId": "02131",
    "storeState": "MA",
    "storeMarketSize": 29826,
    "storeLat": 42.284333,
    "storeLong": -71.126228
  },
  {
    "storeName": "West Roxbury Pizza #32",
    "storeRating": 4.5,
    "storeId": "02132",
    "storeState": "MA",
    "storeMarketSize": 25861,
    "storeLat": 42.280455,
    "storeLong": -71.162017
  },
  {
    "storeName": "Allston Pizza #34",
    "storeRating": 4.7,
    "storeId": "02134",
    "storeState": "MA",
    "storeMarketSize": 21503,
    "storeLat": 42.358016,
    "storeLong": -71.128608
  },
  {
    "storeName": "Brighton Pizza #35",
    "storeRating": 4.9,
    "storeId": "02135",
    "storeState": "MA",
    "storeMarketSize": 42780,
    "storeLat": 42.349688,
    "storeLong": -71.153964
  },
  {
    "storeName": "Hyde Park Pizza #36",
    "storeRating": 4.8,
    "storeId": "02136",
    "storeState": "MA",
    "storeMarketSize": 28488,
    "storeLat": 42.255083,
    "storeLong": -71.12922
  },
  {
    "storeName": "Cambridge Pizza #38",
    "storeRating": 4.2,
    "storeId": "02138",
    "storeState": "MA",
    "storeMarketSize": 36314,
    "storeLat": 42.379637,
    "storeLong": -71.135152
  },
  {
    "storeName": "Cambridge Pizza #39",
    "storeRating": 4.7,
    "storeId": "02139",
    "storeState": "MA",
    "storeMarketSize": 36349,
    "storeLat": 42.362986,
    "storeLong": -71.103353
  },
  {
    "storeName": "Cambridge Pizza #40",
    "storeRating": 4.9,
    "storeId": "02140",
    "storeState": "MA",
    "storeMarketSize": 17607,
    "storeLat": 42.392157,
    "storeLong": -71.133996
  },
  {
    "storeName": "Cambridge Pizza #41",
    "storeRating": 4.7,
    "storeId": "02141",
    "storeState": "MA",
    "storeMarketSize": 11910,
    "storeLat": 42.3703,
    "storeLong": -71.08256
  },
  {
    "storeName": "Somerville Pizza #43",
    "storeRating": 4.9,
    "storeId": "02143",
    "storeState": "MA",
    "storeMarketSize": 24514,
    "storeLat": 42.381409,
    "storeLong": -71.096714
  },
  {
    "storeName": "Somerville Pizza #44",
    "storeRating": 4.1,
    "storeId": "02144",
    "storeState": "MA",
    "storeMarketSize": 23891,
    "storeLat": 42.399655,
    "storeLong": -71.12255
  },
  {
    "storeName": "Somerville Pizza #45",
    "storeRating": 4.5,
    "storeId": "02145",
    "storeState": "MA",
    "storeMarketSize": 25439,
    "storeLat": 42.391577,
    "storeLong": -71.08991
  },
  {
    "storeName": "Malden Pizza #48",
    "storeRating": 4.9,
    "storeId": "02148",
    "storeState": "MA",
    "storeMarketSize": 59503,
    "storeLat": 42.42938,
    "storeLong": -71.058706
  },
  {
    "storeName": "Everett Pizza #49",
    "storeRating": 4.6,
    "storeId": "02149",
    "storeState": "MA",
    "storeMarketSize": 41550,
    "storeLat": 42.405938,
    "storeLong": -71.054649
  },
  {
    "storeName": "Chelsea Pizza #50",
    "storeRating": 4.7,
    "storeId": "02150",
    "storeState": "MA",
    "storeMarketSize": 35124,
    "storeLat": 42.396824,
    "storeLong": -71.031348
  },
  {
    "storeName": "Revere Pizza #51",
    "storeRating": 4.4,
    "storeId": "02151",
    "storeState": "MA",
    "storeMarketSize": 51808,
    "storeLat": 42.41829,
    "storeLong": -71.001251
  },
  {
    "storeName": "Winthrop Pizza #52",
    "storeRating": 4,
    "storeId": "02152",
    "storeState": "MA",
    "storeMarketSize": 17497,
    "storeLat": 42.373055,
    "storeLong": -70.974807
  },
  {
    "storeName": "Medford Pizza #55",
    "storeRating": 4.9,
    "storeId": "02155",
    "storeState": "MA",
    "storeMarketSize": 57964,
    "storeLat": 42.42384,
    "storeLong": -71.107673
  },
  {
    "storeName": "Quincy Pizza #69",
    "storeRating": 4.5,
    "storeId": "02169",
    "storeState": "MA",
    "storeMarketSize": 55055,
    "storeLat": 42.248386,
    "storeLong": -71.002279
  },
  {
    "storeName": "Quincy Pizza #70",
    "storeRating": 4.4,
    "storeId": "02170",
    "storeState": "MA",
    "storeMarketSize": 19505,
    "storeLat": 42.266415,
    "storeLong": -71.015576
  },
  {
    "storeName": "Quincy Pizza #71",
    "storeRating": 4,
    "storeId": "02171",
    "storeState": "MA",
    "storeMarketSize": 17711,
    "storeLat": 42.29331,
    "storeLong": -71.018208
  },
  {
    "storeName": "Melrose Pizza #76",
    "storeRating": 4.2,
    "storeId": "02176",
    "storeState": "MA",
    "storeMarketSize": 26983,
    "storeLat": 42.455723,
    "storeLong": -71.059019
  },
  {
    "storeName": "Stoneham Pizza #80",
    "storeRating": 4.8,
    "storeId": "02180",
    "storeState": "MA",
    "storeMarketSize": 21437,
    "storeLat": 42.474208,
    "storeLong": -71.097665
  },
  {
    "storeName": "Braintree Pizza #84",
    "storeRating": 4.5,
    "storeId": "02184",
    "storeState": "MA",
    "storeMarketSize": 35744,
    "storeLat": 42.206188,
    "storeLong": -71.00232
  },
  {
    "storeName": "Milton Pizza #86",
    "storeRating": 4.4,
    "storeId": "02186",
    "storeState": "MA",
    "storeMarketSize": 27003,
    "storeLat": 42.241557,
    "storeLong": -71.082432
  },
  {
    "storeName": "Weymouth Pizza #88",
    "storeRating": 4.9,
    "storeId": "02188",
    "storeState": "MA",
    "storeMarketSize": 14608,
    "storeLat": 42.204578,
    "storeLong": -70.957749
  },
  {
    "storeName": "East Weymouth Pizza #89",
    "storeRating": 4.8,
    "storeId": "02189",
    "storeState": "MA",
    "storeMarketSize": 14559,
    "storeLat": 42.209776,
    "storeLong": -70.928189
  },
  {
    "storeName": "South Weymouth Pizza #90",
    "storeRating": 4.7,
    "storeId": "02190",
    "storeState": "MA",
    "storeMarketSize": 16119,
    "storeLat": 42.166731,
    "storeLong": -70.952363
  },
  {
    "storeName": "Boston Pizza #15",
    "storeRating": 4.8,
    "storeId": "02215",
    "storeState": "MA",
    "storeMarketSize": 26125,
    "storeLat": 42.347635,
    "storeLong": -71.103082
  },
  {
    "storeName": "Brockton Pizza #01",
    "storeRating": 4.1,
    "storeId": "02301",
    "storeState": "MA",
    "storeMarketSize": 61025,
    "storeLat": 42.078371,
    "storeLong": -71.042304
  },
  {
    "storeName": "Brockton Pizza #02",
    "storeRating": 5,
    "storeId": "02302",
    "storeState": "MA",
    "storeMarketSize": 32741,
    "storeLat": 42.088907,
    "storeLong": -70.998375
  },
  {
    "storeName": "Bridgewater Pizza #24",
    "storeRating": 4.7,
    "storeId": "02324",
    "storeState": "MA",
    "storeMarketSize": 26563,
    "storeLat": 41.972387,
    "storeLong": -70.978778
  },
  {
    "storeName": "Carver Pizza #30",
    "storeRating": 4.5,
    "storeId": "02330",
    "storeState": "MA",
    "storeMarketSize": 11509,
    "storeLat": 41.878644,
    "storeLong": -70.743198
  },
  {
    "storeName": "Duxbury Pizza #32",
    "storeRating": 4.4,
    "storeId": "02332",
    "storeState": "MA",
    "storeMarketSize": 15059,
    "storeLat": 42.044325,
    "storeLong": -70.706075
  },
  {
    "storeName": "East Bridgewater Pizza #33",
    "storeRating": 4.2,
    "storeId": "02333",
    "storeState": "MA",
    "storeMarketSize": 13794,
    "storeLat": 42.037278,
    "storeLong": -70.940459
  },
  {
    "storeName": "Hanover Pizza #39",
    "storeRating": 4.9,
    "storeId": "02339",
    "storeState": "MA",
    "storeMarketSize": 13879,
    "storeLat": 42.122956,
    "storeLong": -70.85631
  },
  {
    "storeName": "Hanson Pizza #41",
    "storeRating": 4.5,
    "storeId": "02341",
    "storeState": "MA",
    "storeMarketSize": 10218,
    "storeLat": 42.050464,
    "storeLong": -70.867418
  },
  {
    "storeName": "Holbrook Pizza #43",
    "storeRating": 4.9,
    "storeId": "02343",
    "storeState": "MA",
    "storeMarketSize": 10745,
    "storeLat": 42.140244,
    "storeLong": -70.997347
  },
  {
    "storeName": "Middleboro Pizza #46",
    "storeRating": 4.8,
    "storeId": "02346",
    "storeState": "MA",
    "storeMarketSize": 23106,
    "storeLat": 41.878004,
    "storeLong": -70.869267
  },
  {
    "storeName": "Lakeville Pizza #47",
    "storeRating": 4.2,
    "storeId": "02347",
    "storeState": "MA",
    "storeMarketSize": 10612,
    "storeLat": 41.834412,
    "storeLong": -70.957163
  },
  {
    "storeName": "Abington Pizza #51",
    "storeRating": 4.3,
    "storeId": "02351",
    "storeState": "MA",
    "storeMarketSize": 16029,
    "storeLat": 42.119964,
    "storeLong": -70.957216
  },
  {
    "storeName": "North Easton Pizza #56",
    "storeRating": 4.9,
    "storeId": "02356",
    "storeState": "MA",
    "storeMarketSize": 12564,
    "storeLat": 42.060532,
    "storeLong": -71.119676
  },
  {
    "storeName": "Pembroke Pizza #59",
    "storeRating": 4.5,
    "storeId": "02359",
    "storeState": "MA",
    "storeMarketSize": 17828,
    "storeLat": 42.067804,
    "storeLong": -70.805713
  },
  {
    "storeName": "Plymouth Pizza #60",
    "storeRating": 4.7,
    "storeId": "02360",
    "storeState": "MA",
    "storeMarketSize": 56271,
    "storeLat": 41.882056,
    "storeLong": -70.63129
  },
  {
    "storeName": "Kingston Pizza #64",
    "storeRating": 4.1,
    "storeId": "02364",
    "storeState": "MA",
    "storeMarketSize": 12629,
    "storeLat": 41.987196,
    "storeLong": -70.741942
  },
  {
    "storeName": "Randolph Pizza #68",
    "storeRating": 4.6,
    "storeId": "02368",
    "storeState": "MA",
    "storeMarketSize": 32158,
    "storeLat": 42.176446,
    "storeLong": -71.051567
  },
  {
    "storeName": "Rockland Pizza #70",
    "storeRating": 4,
    "storeId": "02370",
    "storeState": "MA",
    "storeMarketSize": 17489,
    "storeLat": 42.130399,
    "storeLong": -70.910615
  },
  {
    "storeName": "Whitman Pizza #82",
    "storeRating": 4.6,
    "storeId": "02382",
    "storeState": "MA",
    "storeMarketSize": 14489,
    "storeLat": 42.078974,
    "storeLong": -70.93939
  },
  {
    "storeName": "Lexington Pizza #20",
    "storeRating": 4.8,
    "storeId": "02420",
    "storeState": "MA",
    "storeMarketSize": 14052,
    "storeLat": 42.457055,
    "storeLong": -71.215464
  },
  {
    "storeName": "Lexington Pizza #21",
    "storeRating": 4.4,
    "storeId": "02421",
    "storeState": "MA",
    "storeMarketSize": 17342,
    "storeLat": 42.438547,
    "storeLong": -71.239573
  },
  {
    "storeName": "Brookline Pizza #45",
    "storeRating": 4.8,
    "storeId": "02445",
    "storeState": "MA",
    "storeMarketSize": 20679,
    "storeLat": 42.325483,
    "storeLong": -71.135045
  },
  {
    "storeName": "Brookline Pizza #46",
    "storeRating": 4.4,
    "storeId": "02446",
    "storeState": "MA",
    "storeMarketSize": 29311,
    "storeLat": 42.343503,
    "storeLong": -71.122248
  },
  {
    "storeName": "Waltham Pizza #51",
    "storeRating": 4,
    "storeId": "02451",
    "storeState": "MA",
    "storeMarketSize": 17426,
    "storeLat": 42.397823,
    "storeLong": -71.255708
  },
  {
    "storeName": "Waltham Pizza #52",
    "storeRating": 4.1,
    "storeId": "02452",
    "storeState": "MA",
    "storeMarketSize": 14238,
    "storeLat": 42.392721,
    "storeLong": -71.213532
  },
  {
    "storeName": "Waltham Pizza #53",
    "storeRating": 4.2,
    "storeId": "02453",
    "storeState": "MA",
    "storeMarketSize": 28968,
    "storeLat": 42.369542,
    "storeLong": -71.240513
  },
  {
    "storeName": "Newton Pizza #58",
    "storeRating": 4,
    "storeId": "02458",
    "storeState": "MA",
    "storeMarketSize": 12131,
    "storeLat": 42.353585,
    "storeLong": -71.188192
  },
  {
    "storeName": "Newton Center Pizza #59",
    "storeRating": 4.3,
    "storeId": "02459",
    "storeState": "MA",
    "storeMarketSize": 19095,
    "storeLat": 42.314779,
    "storeLong": -71.192017
  },
  {
    "storeName": "West Newton Pizza #65",
    "storeRating": 4.8,
    "storeId": "02465",
    "storeState": "MA",
    "storeMarketSize": 11710,
    "storeLat": 42.348912,
    "storeLong": -71.22633
  },
  {
    "storeName": "Chestnut Hill Pizza #67",
    "storeRating": 4.7,
    "storeId": "02467",
    "storeState": "MA",
    "storeMarketSize": 22491,
    "storeLat": 42.314344,
    "storeLong": -71.152759
  },
  {
    "storeName": "Watertown Pizza #72",
    "storeRating": 4.6,
    "storeId": "02472",
    "storeState": "MA",
    "storeMarketSize": 32014,
    "storeLat": 42.369451,
    "storeLong": -71.177925
  },
  {
    "storeName": "Arlington Pizza #74",
    "storeRating": 4.2,
    "storeId": "02474",
    "storeState": "MA",
    "storeMarketSize": 26312,
    "storeLat": 42.420949,
    "storeLong": -71.15637
  },
  {
    "storeName": "Arlington Pizza #76",
    "storeRating": 4.9,
    "storeId": "02476",
    "storeState": "MA",
    "storeMarketSize": 16532,
    "storeLat": 42.415637,
    "storeLong": -71.17567
  },
  {
    "storeName": "Belmont Pizza #78",
    "storeRating": 4.4,
    "storeId": "02478",
    "storeState": "MA",
    "storeMarketSize": 24664,
    "storeLat": 42.395317,
    "storeLong": -71.180284
  },
  {
    "storeName": "Wellesley Hills Pizza #81",
    "storeRating": 4.4,
    "storeId": "02481",
    "storeState": "MA",
    "storeMarketSize": 16244,
    "storeLat": 42.311927,
    "storeLong": -71.275531
  },
  {
    "storeName": "Wellesley Pizza #82",
    "storeRating": 4.7,
    "storeId": "02482",
    "storeState": "MA",
    "storeMarketSize": 10306,
    "storeLat": 42.293103,
    "storeLong": -71.298537
  },
  {
    "storeName": "Needham Pizza #92",
    "storeRating": 4.7,
    "storeId": "02492",
    "storeState": "MA",
    "storeMarketSize": 19931,
    "storeLat": 42.276029,
    "storeLong": -71.244543
  },
  {
    "storeName": "Weston Pizza #93",
    "storeRating": 4.6,
    "storeId": "02493",
    "storeState": "MA",
    "storeMarketSize": 11261,
    "storeLat": 42.360502,
    "storeLong": -71.303433
  },
  {
    "storeName": "Buzzards Bay Pizza #32",
    "storeRating": 4.6,
    "storeId": "02532",
    "storeState": "MA",
    "storeMarketSize": 12690,
    "storeLat": 41.751759,
    "storeLong": -70.597552
  },
  {
    "storeName": "East Falmouth Pizza #36",
    "storeRating": 4.1,
    "storeId": "02536",
    "storeState": "MA",
    "storeMarketSize": 19583,
    "storeLat": 41.596305,
    "storeLong": -70.567467
  },
  {
    "storeName": "Sandwich Pizza #63",
    "storeRating": 4.3,
    "storeId": "02563",
    "storeState": "MA",
    "storeMarketSize": 10359,
    "storeLat": 41.728137,
    "storeLong": -70.476549
  },
  {
    "storeName": "Wareham Pizza #71",
    "storeRating": 4.5,
    "storeId": "02571",
    "storeState": "MA",
    "storeMarketSize": 10481,
    "storeLat": 41.761187,
    "storeLong": -70.695991
  },
  {
    "storeName": "Hyannis Pizza #01",
    "storeRating": 4.2,
    "storeId": "02601",
    "storeState": "MA",
    "storeMarketSize": 14089,
    "storeLat": 41.657961,
    "storeLong": -70.298093
  },
  {
    "storeName": "Centerville Pizza #32",
    "storeRating": 4.7,
    "storeId": "02632",
    "storeState": "MA",
    "storeMarketSize": 10742,
    "storeLat": 41.659097,
    "storeLong": -70.346877
  },
  {
    "storeName": "Mashpee Pizza #49",
    "storeRating": 4,
    "storeId": "02649",
    "storeState": "MA",
    "storeMarketSize": 14006,
    "storeLat": 41.616801,
    "storeLong": -70.490097
  },
  {
    "storeName": "Attleboro Pizza #03",
    "storeRating": 4.9,
    "storeId": "02703",
    "storeState": "MA",
    "storeMarketSize": 43593,
    "storeLat": 41.931653,
    "storeLong": -71.294503
  },
  {
    "storeName": "Fairhaven Pizza #19",
    "storeRating": 4.2,
    "storeId": "02719",
    "storeState": "MA",
    "storeMarketSize": 15873,
    "storeLat": 41.633619,
    "storeLong": -70.871306
  },
  {
    "storeName": "Fall River Pizza #20",
    "storeRating": 4.5,
    "storeId": "02720",
    "storeState": "MA",
    "storeMarketSize": 30287,
    "storeLat": 41.72505,
    "storeLong": -71.121329
  },
  {
    "storeName": "Fall River Pizza #21",
    "storeRating": 4.9,
    "storeId": "02721",
    "storeState": "MA",
    "storeMarketSize": 26290,
    "storeLat": 41.675125,
    "storeLong": -71.148281
  },
  {
    "storeName": "Fall River Pizza #23",
    "storeRating": 4.1,
    "storeId": "02723",
    "storeState": "MA",
    "storeMarketSize": 14767,
    "storeLat": 41.692705,
    "storeLong": -71.129726
  },
  {
    "storeName": "Fall River Pizza #24",
    "storeRating": 4.1,
    "storeId": "02724",
    "storeState": "MA",
    "storeMarketSize": 16908,
    "storeLat": 41.683936,
    "storeLong": -71.1775
  },
  {
    "storeName": "Somerset Pizza #26",
    "storeRating": 4,
    "storeId": "02726",
    "storeState": "MA",
    "storeMarketSize": 15534,
    "storeLat": 41.7597,
    "storeLong": -71.144592
  },
  {
    "storeName": "New Bedford Pizza #40",
    "storeRating": 4.1,
    "storeId": "02740",
    "storeState": "MA",
    "storeMarketSize": 43087,
    "storeLat": 41.637485,
    "storeLong": -70.938265
  },
  {
    "storeName": "Acushnet Pizza #43",
    "storeRating": 4.1,
    "storeId": "02743",
    "storeState": "MA",
    "storeMarketSize": 10307,
    "storeLat": 41.718217,
    "storeLong": -70.901151
  },
  {
    "storeName": "New Bedford Pizza #44",
    "storeRating": 4.1,
    "storeId": "02744",
    "storeState": "MA",
    "storeMarketSize": 11900,
    "storeLat": 41.606252,
    "storeLong": -70.913632
  },
  {
    "storeName": "New Bedford Pizza #45",
    "storeRating": 4.7,
    "storeId": "02745",
    "storeState": "MA",
    "storeMarketSize": 24576,
    "storeLat": 41.700737,
    "storeLong": -70.950546
  },
  {
    "storeName": "New Bedford Pizza #46",
    "storeRating": 4.2,
    "storeId": "02746",
    "storeState": "MA",
    "storeMarketSize": 15342,
    "storeLat": 41.660995,
    "storeLong": -70.940137
  },
  {
    "storeName": "North Dartmouth Pizza #47",
    "storeRating": 4,
    "storeId": "02747",
    "storeState": "MA",
    "storeMarketSize": 22927,
    "storeLat": 41.664711,
    "storeLong": -71.015699
  },
  {
    "storeName": "South Dartmouth Pizza #48",
    "storeRating": 4.5,
    "storeId": "02748",
    "storeState": "MA",
    "storeMarketSize": 11442,
    "storeLat": 41.553084,
    "storeLong": -70.971453
  },
  {
    "storeName": "North Attleboro Pizza #60",
    "storeRating": 4.7,
    "storeId": "02760",
    "storeState": "MA",
    "storeMarketSize": 26739,
    "storeLat": 41.972509,
    "storeLong": -71.334397
  },
  {
    "storeName": "Norton Pizza #66",
    "storeRating": 4.7,
    "storeId": "02766",
    "storeState": "MA",
    "storeMarketSize": 19031,
    "storeLat": 41.965341,
    "storeLong": -71.18178
  },
  {
    "storeName": "Raynham Pizza #67",
    "storeRating": 4.5,
    "storeId": "02767",
    "storeState": "MA",
    "storeMarketSize": 13566,
    "storeLat": 41.940996,
    "storeLong": -71.048499
  },
  {
    "storeName": "Rehoboth Pizza #69",
    "storeRating": 5,
    "storeId": "02769",
    "storeState": "MA",
    "storeMarketSize": 11608,
    "storeLat": 41.846878,
    "storeLong": -71.24487
  },
  {
    "storeName": "Seekonk Pizza #71",
    "storeRating": 4.4,
    "storeId": "02771",
    "storeState": "MA",
    "storeMarketSize": 13708,
    "storeLat": 41.842106,
    "storeLong": -71.322309
  },
  {
    "storeName": "Swansea Pizza #77",
    "storeRating": 4.3,
    "storeId": "02777",
    "storeState": "MA",
    "storeMarketSize": 15840,
    "storeLat": 41.758163,
    "storeLong": -71.214181
  },
  {
    "storeName": "Taunton Pizza #80",
    "storeRating": 4.2,
    "storeId": "02780",
    "storeState": "MA",
    "storeMarketSize": 49036,
    "storeLat": 41.909112,
    "storeLong": -71.118346
  },
  {
    "storeName": "Westport Pizza #90",
    "storeRating": 4.7,
    "storeId": "02790",
    "storeState": "MA",
    "storeMarketSize": 15717,
    "storeLat": 41.599176,
    "storeLong": -71.082371
  },
  {
    "storeName": "Barrington Pizza #06",
    "storeRating": 4.3,
    "storeId": "02806",
    "storeState": "RI",
    "storeMarketSize": 16310,
    "storeLat": 41.734753,
    "storeLong": -71.319732
  },
  {
    "storeName": "Bristol Pizza #09",
    "storeRating": 5,
    "storeId": "02809",
    "storeState": "RI",
    "storeMarketSize": 22938,
    "storeLat": 41.67573,
    "storeLong": -71.273331
  },
  {
    "storeName": "Coventry Pizza #16",
    "storeRating": 5,
    "storeId": "02816",
    "storeState": "RI",
    "storeMarketSize": 32611,
    "storeLat": 41.696499,
    "storeLong": -71.622662
  },
  {
    "storeName": "East Greenwich Pizza #18",
    "storeRating": 4.9,
    "storeId": "02818",
    "storeState": "RI",
    "storeMarketSize": 18082,
    "storeLat": 41.642919,
    "storeLong": -71.485719
  },
  {
    "storeName": "Newport Pizza #40",
    "storeRating": 4.9,
    "storeId": "02840",
    "storeState": "RI",
    "storeMarketSize": 23335,
    "storeLat": 41.478216,
    "storeLong": -71.322375
  },
  {
    "storeName": "Middletown Pizza #42",
    "storeRating": 4.2,
    "storeId": "02842",
    "storeState": "RI",
    "storeMarketSize": 16095,
    "storeLat": 41.518673,
    "storeLong": -71.281685
  },
  {
    "storeName": "North Kingstown Pizza #52",
    "storeRating": 4.2,
    "storeId": "02852",
    "storeState": "RI",
    "storeMarketSize": 22551,
    "storeLat": 41.588565,
    "storeLong": -71.459811
  },
  {
    "storeName": "Pawtucket Pizza #60",
    "storeRating": 4.2,
    "storeId": "02860",
    "storeState": "RI",
    "storeMarketSize": 45199,
    "storeLat": 41.870562,
    "storeLong": -71.388681
  },
  {
    "storeName": "Pawtucket Pizza #61",
    "storeRating": 4.9,
    "storeId": "02861",
    "storeState": "RI",
    "storeMarketSize": 26178,
    "storeLat": 41.878603,
    "storeLong": -71.353131
  },
  {
    "storeName": "Central Falls Pizza #63",
    "storeRating": 4.4,
    "storeId": "02863",
    "storeState": "RI",
    "storeMarketSize": 19385,
    "storeLat": 41.890064,
    "storeLong": -71.393481
  },
  {
    "storeName": "Cumberland Pizza #64",
    "storeRating": 4.1,
    "storeId": "02864",
    "storeState": "RI",
    "storeMarketSize": 33396,
    "storeLat": 41.966913,
    "storeLong": -71.428933
  },
  {
    "storeName": "Lincoln Pizza #65",
    "storeRating": 4.7,
    "storeId": "02865",
    "storeState": "RI",
    "storeMarketSize": 16951,
    "storeLat": 41.915455,
    "storeLong": -71.449815
  },
  {
    "storeName": "Portsmouth Pizza #71",
    "storeRating": 4.8,
    "storeId": "02871",
    "storeState": "RI",
    "storeMarketSize": 17171,
    "storeLat": 41.587299,
    "storeLong": -71.261246
  },
  {
    "storeName": "Tiverton Pizza #78",
    "storeRating": 4.7,
    "storeId": "02878",
    "storeState": "RI",
    "storeMarketSize": 15780,
    "storeLat": 41.609436,
    "storeLong": -71.178113
  },
  {
    "storeName": "Wakefield Pizza #79",
    "storeRating": 4.9,
    "storeId": "02879",
    "storeState": "RI",
    "storeMarketSize": 20371,
    "storeLat": 41.424019,
    "storeLong": -71.534277
  },
  {
    "storeName": "Narragansett Pizza #82",
    "storeRating": 4.5,
    "storeId": "02882",
    "storeState": "RI",
    "storeMarketSize": 14184,
    "storeLat": 41.415152,
    "storeLong": -71.465251
  },
  {
    "storeName": "Warren Pizza #85",
    "storeRating": 4.8,
    "storeId": "02885",
    "storeState": "RI",
    "storeMarketSize": 10627,
    "storeLat": 41.725138,
    "storeLong": -71.258805
  },
  {
    "storeName": "Warwick Pizza #86",
    "storeRating": 4.3,
    "storeId": "02886",
    "storeState": "RI",
    "storeMarketSize": 29269,
    "storeLat": 41.703849,
    "storeLong": -71.455568
  },
  {
    "storeName": "Warwick Pizza #88",
    "storeRating": 4.3,
    "storeId": "02888",
    "storeState": "RI",
    "storeMarketSize": 19912,
    "storeLat": 41.747671,
    "storeLong": -71.406118
  },
  {
    "storeName": "Warwick Pizza #89",
    "storeRating": 4.1,
    "storeId": "02889",
    "storeState": "RI",
    "storeMarketSize": 28217,
    "storeLat": 41.700591,
    "storeLong": -71.376927
  },
  {
    "storeName": "Westerly Pizza #91",
    "storeRating": 4.6,
    "storeId": "02891",
    "storeState": "RI",
    "storeMarketSize": 21198,
    "storeLat": 41.361854,
    "storeLong": -71.789689
  },
  {
    "storeName": "West Warwick Pizza #93",
    "storeRating": 4.7,
    "storeId": "02893",
    "storeState": "RI",
    "storeMarketSize": 29630,
    "storeLat": 41.679006,
    "storeLong": -71.518688
  },
  {
    "storeName": "Woonsocket Pizza #95",
    "storeRating": 4.4,
    "storeId": "02895",
    "storeState": "RI",
    "storeMarketSize": 41186,
    "storeLat": 42.001706,
    "storeLong": -71.499949
  },
  {
    "storeName": "North Smithfield Pizza #96",
    "storeRating": 4.5,
    "storeId": "02896",
    "storeState": "RI",
    "storeMarketSize": 11537,
    "storeLat": 41.975186,
    "storeLong": -71.544069
  },
  {
    "storeName": "Providence Pizza #03",
    "storeRating": 4.1,
    "storeId": "02903",
    "storeState": "RI",
    "storeMarketSize": 10780,
    "storeLat": 41.81823,
    "storeLong": -71.409088
  },
  {
    "storeName": "Providence Pizza #04",
    "storeRating": 4,
    "storeId": "02904",
    "storeState": "RI",
    "storeMarketSize": 29359,
    "storeLat": 41.858334,
    "storeLong": -71.436294
  },
  {
    "storeName": "Providence Pizza #05",
    "storeRating": 4.9,
    "storeId": "02905",
    "storeState": "RI",
    "storeMarketSize": 25223,
    "storeLat": 41.784725,
    "storeLong": -71.396103
  },
  {
    "storeName": "Providence Pizza #06",
    "storeRating": 4.4,
    "storeId": "02906",
    "storeState": "RI",
    "storeMarketSize": 28387,
    "storeLat": 41.840169,
    "storeLong": -71.390408
  },
  {
    "storeName": "Providence Pizza #07",
    "storeRating": 4.5,
    "storeId": "02907",
    "storeState": "RI",
    "storeMarketSize": 27445,
    "storeLat": 41.798593,
    "storeLong": -71.42463
  },
  {
    "storeName": "Providence Pizza #08",
    "storeRating": 4.7,
    "storeId": "02908",
    "storeState": "RI",
    "storeMarketSize": 37467,
    "storeLat": 41.839825,
    "storeLong": -71.436794
  },
  {
    "storeName": "Providence Pizza #09",
    "storeRating": 5,
    "storeId": "02909",
    "storeState": "RI",
    "storeMarketSize": 43540,
    "storeLat": 41.821417,
    "storeLong": -71.453215
  },
  {
    "storeName": "Cranston Pizza #10",
    "storeRating": 4.4,
    "storeId": "02910",
    "storeState": "RI",
    "storeMarketSize": 21000,
    "storeLat": 41.774999,
    "storeLong": -71.435594
  },
  {
    "storeName": "North Providence Pizza #11",
    "storeRating": 4.6,
    "storeId": "02911",
    "storeState": "RI",
    "storeMarketSize": 15574,
    "storeLat": 41.854888,
    "storeLong": -71.472812
  },
  {
    "storeName": "East Providence Pizza #14",
    "storeRating": 4.8,
    "storeId": "02914",
    "storeState": "RI",
    "storeMarketSize": 21963,
    "storeLat": 41.814838,
    "storeLong": -71.365333
  },
  {
    "storeName": "Riverside Pizza #15",
    "storeRating": 4.1,
    "storeId": "02915",
    "storeState": "RI",
    "storeMarketSize": 16897,
    "storeLat": 41.772847,
    "storeLong": -71.354839
  },
  {
    "storeName": "Smithfield Pizza #17",
    "storeRating": 4.3,
    "storeId": "02917",
    "storeState": "RI",
    "storeMarketSize": 13762,
    "storeLat": 41.905774,
    "storeLong": -71.523305
  },
  {
    "storeName": "Johnston Pizza #19",
    "storeRating": 4.9,
    "storeId": "02919",
    "storeState": "RI",
    "storeMarketSize": 28790,
    "storeLat": 41.82744,
    "storeLong": -71.519879
  },
  {
    "storeName": "Cranston Pizza #20",
    "storeRating": 4.5,
    "storeId": "02920",
    "storeState": "RI",
    "storeMarketSize": 37547,
    "storeLat": 41.767344,
    "storeLong": -71.465508
  },
  {
    "storeName": "Cranston Pizza #21",
    "storeRating": 4.5,
    "storeId": "02921",
    "storeState": "RI",
    "storeMarketSize": 12361,
    "storeLat": 41.768455,
    "storeLong": -71.515778
  },
  {
    "storeName": "Amherst Pizza #31",
    "storeRating": 4.5,
    "storeId": "03031",
    "storeState": "NH",
    "storeMarketSize": 11247,
    "storeLat": 42.874864,
    "storeLong": -71.600503
  },
  {
    "storeName": "Derry Pizza #38",
    "storeRating": 4.8,
    "storeId": "03038",
    "storeState": "NH",
    "storeMarketSize": 33269,
    "storeLat": 42.892761,
    "storeLong": -71.276763
  },
  {
    "storeName": "Goffstown Pizza #45",
    "storeRating": 4.7,
    "storeId": "03045",
    "storeState": "NH",
    "storeMarketSize": 13560,
    "storeLat": 43.021515,
    "storeLong": -71.563462
  },
  {
    "storeName": "Hudson Pizza #51",
    "storeRating": 4.5,
    "storeId": "03051",
    "storeState": "NH",
    "storeMarketSize": 24480,
    "storeLat": 42.760508,
    "storeLong": -71.409494
  },
  {
    "storeName": "Londonderry Pizza #53",
    "storeRating": 4.4,
    "storeId": "03053",
    "storeState": "NH",
    "storeMarketSize": 23957,
    "storeLat": 42.869839,
    "storeLong": -71.387845
  },
  {
    "storeName": "Merrimack Pizza #54",
    "storeRating": 4.3,
    "storeId": "03054",
    "storeState": "NH",
    "storeMarketSize": 25477,
    "storeLat": 42.852034,
    "storeLong": -71.519876
  },
  {
    "storeName": "Milford Pizza #55",
    "storeRating": 4.3,
    "storeId": "03055",
    "storeState": "NH",
    "storeMarketSize": 15086,
    "storeLat": 42.818645,
    "storeLong": -71.673354
  },
  {
    "storeName": "Nashua Pizza #60",
    "storeRating": 4,
    "storeId": "03060",
    "storeState": "NH",
    "storeMarketSize": 29357,
    "storeLat": 42.741087,
    "storeLong": -71.458266
  },
  {
    "storeName": "Nashua Pizza #62",
    "storeRating": 4.1,
    "storeId": "03062",
    "storeState": "NH",
    "storeMarketSize": 26694,
    "storeLat": 42.722323,
    "storeLong": -71.501176
  },
  {
    "storeName": "Nashua Pizza #63",
    "storeRating": 4.3,
    "storeId": "03063",
    "storeState": "NH",
    "storeMarketSize": 16216,
    "storeLat": 42.782084,
    "storeLong": -71.518043
  },
  {
    "storeName": "Nashua Pizza #64",
    "storeRating": 4.6,
    "storeId": "03064",
    "storeState": "NH",
    "storeMarketSize": 14227,
    "storeLat": 42.779378,
    "storeLong": -71.474918
  },
  {
    "storeName": "Pelham Pizza #76",
    "storeRating": 4.3,
    "storeId": "03076",
    "storeState": "NH",
    "storeMarketSize": 12897,
    "storeLat": 42.730992,
    "storeLong": -71.337073
  },
  {
    "storeName": "Raymond Pizza #77",
    "storeRating": 4.5,
    "storeId": "03077",
    "storeState": "NH",
    "storeMarketSize": 10155,
    "storeLat": 43.038038,
    "storeLong": -71.205107
  },
  {
    "storeName": "Salem Pizza #79",
    "storeRating": 5,
    "storeId": "03079",
    "storeState": "NH",
    "storeMarketSize": 28776,
    "storeLat": 42.788264,
    "storeLong": -71.221726
  },
  {
    "storeName": "Windham Pizza #87",
    "storeRating": 4.8,
    "storeId": "03087",
    "storeState": "NH",
    "storeMarketSize": 13592,
    "storeLat": 42.811092,
    "storeLong": -71.302688
  },
  {
    "storeName": "Manchester Pizza #02",
    "storeRating": 4.4,
    "storeId": "03102",
    "storeState": "NH",
    "storeMarketSize": 31096,
    "storeLat": 43.011907,
    "storeLong": -71.491063
  },
  {
    "storeName": "Manchester Pizza #03",
    "storeRating": 4.2,
    "storeId": "03103",
    "storeState": "NH",
    "storeMarketSize": 36476,
    "storeLat": 42.950538,
    "storeLong": -71.446547
  },
  {
    "storeName": "Manchester Pizza #04",
    "storeRating": 4.3,
    "storeId": "03104",
    "storeState": "NH",
    "storeMarketSize": 32798,
    "storeLat": 43.009552,
    "storeLong": -71.439782
  },
  {
    "storeName": "Hooksett Pizza #06",
    "storeRating": 4.9,
    "storeId": "03106",
    "storeState": "NH",
    "storeMarketSize": 13374,
    "storeLat": 43.082584,
    "storeLong": -71.446878
  },
  {
    "storeName": "Manchester Pizza #09",
    "storeRating": 4.1,
    "storeId": "03109",
    "storeState": "NH",
    "storeMarketSize": 10314,
    "storeLat": 42.963734,
    "storeLong": -71.40035
  },
  {
    "storeName": "Bedford Pizza #10",
    "storeRating": 4.1,
    "storeId": "03110",
    "storeState": "NH",
    "storeMarketSize": 21203,
    "storeLat": 42.935584,
    "storeLong": -71.536871
  },
  {
    "storeName": "Laconia Pizza #46",
    "storeRating": 4.5,
    "storeId": "03246",
    "storeState": "NH",
    "storeMarketSize": 15963,
    "storeLat": 43.576496,
    "storeLong": -71.482301
  },
  {
    "storeName": "Suncook Pizza #75",
    "storeRating": 4.8,
    "storeId": "03275",
    "storeState": "NH",
    "storeMarketSize": 11437,
    "storeLat": 43.170513,
    "storeLong": -71.417063
  },
  {
    "storeName": "Concord Pizza #01",
    "storeRating": 4.5,
    "storeId": "03301",
    "storeState": "NH",
    "storeMarketSize": 33008,
    "storeLat": 43.238549,
    "storeLong": -71.555988
  },
  {
    "storeName": "Concord Pizza #03",
    "storeRating": 4.6,
    "storeId": "03303",
    "storeState": "NH",
    "storeMarketSize": 15524,
    "storeLat": 43.311685,
    "storeLong": -71.665421
  },
  {
    "storeName": "Keene Pizza #31",
    "storeRating": 4.2,
    "storeId": "03431",
    "storeState": "NH",
    "storeMarketSize": 25280,
    "storeLat": 42.965044,
    "storeLong": -72.294803
  },
  {
    "storeName": "Berlin Pizza #70",
    "storeRating": 4.2,
    "storeId": "03570",
    "storeState": "NH",
    "storeMarketSize": 10051,
    "storeLat": 44.504596,
    "storeLong": -71.155466
  },
  {
    "storeName": "Claremont Pizza #43",
    "storeRating": 4.9,
    "storeId": "03743",
    "storeState": "NH",
    "storeMarketSize": 14103,
    "storeLat": 43.360727,
    "storeLong": -72.326929
  },
  {
    "storeName": "Hanover Pizza #55",
    "storeRating": 4.6,
    "storeId": "03755",
    "storeState": "NH",
    "storeMarketSize": 10538,
    "storeLat": 43.727746,
    "storeLong": -72.142753
  },
  {
    "storeName": "Portsmouth Pizza #01",
    "storeRating": 4.4,
    "storeId": "03801",
    "storeState": "NH",
    "storeMarketSize": 21532,
    "storeLat": 43.074812,
    "storeLong": -70.805443
  },
  {
    "storeName": "Dover Pizza #20",
    "storeRating": 4.2,
    "storeId": "03820",
    "storeState": "NH",
    "storeMarketSize": 30039,
    "storeLat": 43.190658,
    "storeLong": -70.887655
  },
  {
    "storeName": "Durham Pizza #24",
    "storeRating": 4.9,
    "storeId": "03824",
    "storeState": "NH",
    "storeMarketSize": 14638,
    "storeLat": 43.117186,
    "storeLong": -70.918788
  },
  {
    "storeName": "Exeter Pizza #33",
    "storeRating": 4.1,
    "storeId": "03833",
    "storeState": "NH",
    "storeMarketSize": 20955,
    "storeLat": 42.978415,
    "storeLong": -70.987522
  },
  {
    "storeName": "Hampton Pizza #42",
    "storeRating": 4,
    "storeId": "03842",
    "storeState": "NH",
    "storeMarketSize": 15345,
    "storeLat": 42.939601,
    "storeLong": -70.836728
  },
  {
    "storeName": "Rochester Pizza #67",
    "storeRating": 4.3,
    "storeId": "03867",
    "storeState": "NH",
    "storeMarketSize": 20758,
    "storeLat": 43.303528,
    "storeLong": -70.988238
  },
  {
    "storeName": "Somersworth Pizza #78",
    "storeRating": 4.4,
    "storeId": "03878",
    "storeState": "NH",
    "storeMarketSize": 11824,
    "storeLat": 43.253476,
    "storeLong": -70.887944
  },
  {
    "storeName": "Biddeford Pizza #05",
    "storeRating": 4.9,
    "storeId": "04005",
    "storeState": "ME",
    "storeMarketSize": 23146,
    "storeLat": 43.492102,
    "storeLong": -70.486566
  },
  {
    "storeName": "Brunswick Pizza #11",
    "storeRating": 4.6,
    "storeId": "04011",
    "storeState": "ME",
    "storeMarketSize": 20278,
    "storeLat": 43.896405,
    "storeLong": -69.973436
  },
  {
    "storeName": "Gorham Pizza #38",
    "storeRating": 4.2,
    "storeId": "04038",
    "storeState": "ME",
    "storeMarketSize": 16381,
    "storeLat": 43.703617,
    "storeLong": -70.46378
  },
  {
    "storeName": "Kennebunk Pizza #43",
    "storeRating": 4.5,
    "storeId": "04043",
    "storeState": "ME",
    "storeMarketSize": 10810,
    "storeLat": 43.392979,
    "storeLong": -70.577032
  },
  {
    "storeName": "Windham Pizza #62",
    "storeRating": 4.9,
    "storeId": "04062",
    "storeState": "ME",
    "storeMarketSize": 17020,
    "storeLat": 43.794689,
    "storeLong": -70.405329
  },
  {
    "storeName": "Saco Pizza #72",
    "storeRating": 4.6,
    "storeId": "04072",
    "storeState": "ME",
    "storeMarketSize": 18482,
    "storeLat": 43.550411,
    "storeLong": -70.466341
  },
  {
    "storeName": "Sanford Pizza #73",
    "storeRating": 4.1,
    "storeId": "04073",
    "storeState": "ME",
    "storeMarketSize": 16189,
    "storeLat": 43.418643,
    "storeLong": -70.747779
  },
  {
    "storeName": "Scarborough Pizza #74",
    "storeRating": 4.4,
    "storeId": "04074",
    "storeState": "ME",
    "storeMarketSize": 18760,
    "storeLat": 43.589627,
    "storeLong": -70.366191
  },
  {
    "storeName": "Westbrook Pizza #92",
    "storeRating": 4.9,
    "storeId": "04092",
    "storeState": "ME",
    "storeMarketSize": 17515,
    "storeLat": 43.70792,
    "storeLong": -70.352602
  },
  {
    "storeName": "Portland Pizza #01",
    "storeRating": 4.7,
    "storeId": "04101",
    "storeState": "ME",
    "storeMarketSize": 17227,
    "storeLat": 43.662607,
    "storeLong": -70.257949
  },
  {
    "storeName": "Portland Pizza #02",
    "storeRating": 4.8,
    "storeId": "04102",
    "storeState": "ME",
    "storeMarketSize": 17335,
    "storeLat": 43.654591,
    "storeLong": -70.297989
  },
  {
    "storeName": "Portland Pizza #03",
    "storeRating": 4.8,
    "storeId": "04103",
    "storeState": "ME",
    "storeMarketSize": 30606,
    "storeLat": 43.694105,
    "storeLong": -70.287927
  },
  {
    "storeName": "Falmouth Pizza #05",
    "storeRating": 4.1,
    "storeId": "04105",
    "storeState": "ME",
    "storeMarketSize": 11158,
    "storeLat": 43.740472,
    "storeLong": -70.277172
  },
  {
    "storeName": "South Portland Pizza #06",
    "storeRating": 4.5,
    "storeId": "04106",
    "storeState": "ME",
    "storeMarketSize": 25175,
    "storeLat": 43.631402,
    "storeLong": -70.285989
  },
  {
    "storeName": "Auburn Pizza #10",
    "storeRating": 4.7,
    "storeId": "04210",
    "storeState": "ME",
    "storeMarketSize": 23045,
    "storeLat": 44.084537,
    "storeLong": -70.249649
  },
  {
    "storeName": "Lewiston Pizza #40",
    "storeRating": 4.9,
    "storeId": "04240",
    "storeState": "ME",
    "storeMarketSize": 36592,
    "storeLat": 44.089594,
    "storeLong": -70.172185
  },
  {
    "storeName": "Augusta Pizza #30",
    "storeRating": 4.2,
    "storeId": "04330",
    "storeState": "ME",
    "storeMarketSize": 26086,
    "storeLat": 44.351895,
    "storeLong": -69.747626
  },
  {
    "storeName": "Gardiner Pizza #45",
    "storeRating": 4.6,
    "storeId": "04345",
    "storeState": "ME",
    "storeMarketSize": 11646,
    "storeLat": 44.195074,
    "storeLong": -69.793912
  },
  {
    "storeName": "Bangor Pizza #01",
    "storeRating": 4.3,
    "storeId": "04401",
    "storeState": "ME",
    "storeMarketSize": 44899,
    "storeLat": 44.848517,
    "storeLong": -68.850405
  },
  {
    "storeName": "Bath Pizza #30",
    "storeRating": 4.3,
    "storeId": "04530",
    "storeState": "ME",
    "storeMarketSize": 10818,
    "storeLat": 43.888228,
    "storeLong": -69.826699
  },
  {
    "storeName": "Ellsworth Pizza #05",
    "storeRating": 4.3,
    "storeId": "04605",
    "storeState": "ME",
    "storeMarketSize": 12974,
    "storeLat": 44.672809,
    "storeLong": -68.391841
  },
  {
    "storeName": "Waterville Pizza #01",
    "storeRating": 4.1,
    "storeId": "04901",
    "storeState": "ME",
    "storeMarketSize": 26248,
    "storeLat": 44.541099,
    "storeLong": -69.573012
  },
  {
    "storeName": "Bennington Pizza #01",
    "storeRating": 4.7,
    "storeId": "05201",
    "storeState": "VT",
    "storeMarketSize": 14851,
    "storeLat": 42.869211,
    "storeLong": -73.128516
  },
  {
    "storeName": "Brattleboro Pizza #01",
    "storeRating": 4.5,
    "storeId": "05301",
    "storeState": "VT",
    "storeMarketSize": 16820,
    "storeLat": 42.83868,
    "storeLong": -72.659997
  },
  {
    "storeName": "Burlington Pizza #01",
    "storeRating": 4.7,
    "storeId": "05401",
    "storeState": "VT",
    "storeMarketSize": 28185,
    "storeLat": 44.476621,
    "storeLong": -73.209998
  },
  {
    "storeName": "South Burlington Pizza #03",
    "storeRating": 4.5,
    "storeId": "05403",
    "storeState": "VT",
    "storeMarketSize": 17593,
    "storeLat": 44.444866,
    "storeLong": -73.173468
  },
  {
    "storeName": "Burlington Pizza #08",
    "storeRating": 4.5,
    "storeId": "05408",
    "storeState": "VT",
    "storeMarketSize": 10114,
    "storeLat": 44.511852,
    "storeLong": -73.249611
  },
  {
    "storeName": "Colchester Pizza #46",
    "storeRating": 4.3,
    "storeId": "05446",
    "storeState": "VT",
    "storeMarketSize": 15373,
    "storeLat": 44.541259,
    "storeLong": -73.184415
  },
  {
    "storeName": "Essex Junction Pizza #52",
    "storeRating": 4.2,
    "storeId": "05452",
    "storeState": "VT",
    "storeMarketSize": 19710,
    "storeLat": 44.538624,
    "storeLong": -73.050223
  },
  {
    "storeName": "Milton Pizza #68",
    "storeRating": 4.6,
    "storeId": "05468",
    "storeState": "VT",
    "storeMarketSize": 12942,
    "storeLat": 44.657371,
    "storeLong": -73.144488
  },
  {
    "storeName": "Saint Albans Pizza #78",
    "storeRating": 4.2,
    "storeId": "05478",
    "storeState": "VT",
    "storeMarketSize": 14449,
    "storeLat": 44.808422,
    "storeLong": -73.082507
  },
  {
    "storeName": "Montpelier Pizza #02",
    "storeRating": 4.2,
    "storeId": "05602",
    "storeState": "VT",
    "storeMarketSize": 11916,
    "storeLat": 44.274953,
    "storeLong": -72.609475
  },
  {
    "storeName": "Barre Pizza #41",
    "storeRating": 4,
    "storeId": "05641",
    "storeState": "VT",
    "storeMarketSize": 17169,
    "storeLat": 44.188842,
    "storeLong": -72.472172
  },
  {
    "storeName": "Rutland Pizza #01",
    "storeRating": 4.4,
    "storeId": "05701",
    "storeState": "VT",
    "storeMarketSize": 20802,
    "storeLat": 43.624577,
    "storeLong": -72.910204
  },
  {
    "storeName": "Middlebury Pizza #53",
    "storeRating": 4,
    "storeId": "05753",
    "storeState": "VT",
    "storeMarketSize": 10491,
    "storeLat": 43.997783,
    "storeLong": -73.178295
  },
  {
    "storeName": "Avon Pizza #01",
    "storeRating": 4.3,
    "storeId": "06001",
    "storeState": "CT",
    "storeMarketSize": 18385,
    "storeLat": 41.787159,
    "storeLong": -72.852046
  },
  {
    "storeName": "Bloomfield Pizza #02",
    "storeRating": 4.3,
    "storeId": "06002",
    "storeState": "CT",
    "storeMarketSize": 20486,
    "storeLat": 41.84493,
    "storeLong": -72.740951
  },
  {
    "storeName": "Bristol Pizza #10",
    "storeRating": 4.3,
    "storeId": "06010",
    "storeState": "CT",
    "storeMarketSize": 60448,
    "storeLat": 41.681578,
    "storeLong": -72.940749
  },
  {
    "storeName": "Canton Pizza #19",
    "storeRating": 4.4,
    "storeId": "06019",
    "storeState": "CT",
    "storeMarketSize": 10129,
    "storeLat": 41.857508,
    "storeLong": -72.902765
  },
  {
    "storeName": "Ellington Pizza #29",
    "storeRating": 4.8,
    "storeId": "06029",
    "storeState": "CT",
    "storeMarketSize": 15547,
    "storeLat": 41.914149,
    "storeLong": -72.445568
  },
  {
    "storeName": "Farmington Pizza #32",
    "storeRating": 4.4,
    "storeId": "06032",
    "storeState": "CT",
    "storeMarketSize": 17675,
    "storeLat": 41.731051,
    "storeLong": -72.857096
  },
  {
    "storeName": "Glastonbury Pizza #33",
    "storeRating": 4.3,
    "storeId": "06033",
    "storeState": "CT",
    "storeMarketSize": 28762,
    "storeLat": 41.707463,
    "storeLong": -72.538932
  },
  {
    "storeName": "Berlin Pizza #37",
    "storeRating": 5,
    "storeId": "06037",
    "storeState": "CT",
    "storeMarketSize": 18565,
    "storeLat": 41.605477,
    "storeLong": -72.778459
  },
  {
    "storeName": "Manchester Pizza #40",
    "storeRating": 4.2,
    "storeId": "06040",
    "storeState": "CT",
    "storeMarketSize": 35306,
    "storeLat": 41.761415,
    "storeLong": -72.525608
  },
  {
    "storeName": "Manchester Pizza #42",
    "storeRating": 4.5,
    "storeId": "06042",
    "storeState": "CT",
    "storeMarketSize": 22942,
    "storeLat": 41.802752,
    "storeLong": -72.521008
  },
  {
    "storeName": "New Britain Pizza #51",
    "storeRating": 4.4,
    "storeId": "06051",
    "storeState": "CT",
    "storeMarketSize": 30519,
    "storeLat": 41.665141,
    "storeLong": -72.769832
  },
  {
    "storeName": "New Britain Pizza #53",
    "storeRating": 4.4,
    "storeId": "06053",
    "storeState": "CT",
    "storeMarketSize": 34863,
    "storeLat": 41.688039,
    "storeLong": -72.793469
  },
  {
    "storeName": "Plainville Pizza #62",
    "storeRating": 5,
    "storeId": "06062",
    "storeState": "CT",
    "storeMarketSize": 17715,
    "storeLat": 41.673639,
    "storeLong": -72.859729
  },
  {
    "storeName": "Vernon Rockville Pizza #66",
    "storeRating": 4.3,
    "storeId": "06066",
    "storeState": "CT",
    "storeMarketSize": 29219,
    "storeLat": 41.837561,
    "storeLong": -72.45904
  },
  {
    "storeName": "Rocky Hill Pizza #67",
    "storeRating": 4.5,
    "storeId": "06067",
    "storeState": "CT",
    "storeMarketSize": 19709,
    "storeLat": 41.656624,
    "storeLong": -72.661779
  },
  {
    "storeName": "Simsbury Pizza #70",
    "storeRating": 4.4,
    "storeId": "06070",
    "storeState": "CT",
    "storeMarketSize": 15104,
    "storeLat": 41.875857,
    "storeLong": -72.809376
  },
  {
    "storeName": "Somers Pizza #71",
    "storeRating": 5,
    "storeId": "06071",
    "storeState": "CT",
    "storeMarketSize": 11645,
    "storeLat": 41.992633,
    "storeLong": -72.453725
  },
  {
    "storeName": "South Windsor Pizza #74",
    "storeRating": 4.5,
    "storeId": "06074",
    "storeState": "CT",
    "storeMarketSize": 25705,
    "storeLat": 41.83809,
    "storeLong": -72.577836
  },
  {
    "storeName": "Stafford Springs Pizza #76",
    "storeRating": 4.7,
    "storeId": "06076",
    "storeState": "CT",
    "storeMarketSize": 12659,
    "storeLat": 41.984442,
    "storeLong": -72.263453
  },
  {
    "storeName": "Suffield Pizza #78",
    "storeRating": 4.3,
    "storeId": "06078",
    "storeState": "CT",
    "storeMarketSize": 12413,
    "storeLat": 41.991611,
    "storeLong": -72.651744
  },
  {
    "storeName": "Enfield Pizza #82",
    "storeRating": 4.2,
    "storeId": "06082",
    "storeState": "CT",
    "storeMarketSize": 44654,
    "storeLat": 41.983993,
    "storeLong": -72.555553
  },
  {
    "storeName": "Tolland Pizza #84",
    "storeRating": 4.4,
    "storeId": "06084",
    "storeState": "CT",
    "storeMarketSize": 15067,
    "storeLat": 41.883019,
    "storeLong": -72.358869
  },
  {
    "storeName": "Windsor Pizza #95",
    "storeRating": 4.2,
    "storeId": "06095",
    "storeState": "CT",
    "storeMarketSize": 29079,
    "storeLat": 41.871037,
    "storeLong": -72.675082
  },
  {
    "storeName": "Windsor Locks Pizza #96",
    "storeRating": 5,
    "storeId": "06096",
    "storeState": "CT",
    "storeMarketSize": 12498,
    "storeLat": 41.92763,
    "storeLong": -72.659703
  },
  {
    "storeName": "Winsted Pizza #98",
    "storeRating": 4.2,
    "storeId": "06098",
    "storeState": "CT",
    "storeMarketSize": 12426,
    "storeLat": 41.956189,
    "storeLong": -73.086364
  },
  {
    "storeName": "Hartford Pizza #05",
    "storeRating": 4.9,
    "storeId": "06105",
    "storeState": "CT",
    "storeMarketSize": 19392,
    "storeLat": 41.774705,
    "storeLong": -72.705037
  },
  {
    "storeName": "Hartford Pizza #06",
    "storeRating": 4.6,
    "storeId": "06106",
    "storeState": "CT",
    "storeMarketSize": 39902,
    "storeLat": 41.748587,
    "storeLong": -72.696006
  },
  {
    "storeName": "West Hartford Pizza #07",
    "storeRating": 4,
    "storeId": "06107",
    "storeState": "CT",
    "storeMarketSize": 18786,
    "storeLat": 41.752304,
    "storeLong": -72.758098
  },
  {
    "storeName": "East Hartford Pizza #08",
    "storeRating": 4.1,
    "storeId": "06108",
    "storeState": "CT",
    "storeMarketSize": 24307,
    "storeLat": 41.780375,
    "storeLong": -72.623945
  },
  {
    "storeName": "Wethersfield Pizza #09",
    "storeRating": 4.4,
    "storeId": "06109",
    "storeState": "CT",
    "storeMarketSize": 26668,
    "storeLat": 41.702484,
    "storeLong": -72.669301
  },
  {
    "storeName": "West Hartford Pizza #10",
    "storeRating": 4.1,
    "storeId": "06110",
    "storeState": "CT",
    "storeMarketSize": 12650,
    "storeLat": 41.732683,
    "storeLong": -72.733603
  },
  {
    "storeName": "Newington Pizza #11",
    "storeRating": 4,
    "storeId": "06111",
    "storeState": "CT",
    "storeMarketSize": 30562,
    "storeLat": 41.686993,
    "storeLong": -72.730839
  },
  {
    "storeName": "Hartford Pizza #12",
    "storeRating": 4.4,
    "storeId": "06112",
    "storeState": "CT",
    "storeMarketSize": 22879,
    "storeLat": 41.793336,
    "storeLong": -72.695823
  },
  {
    "storeName": "Hartford Pizza #14",
    "storeRating": 4.2,
    "storeId": "06114",
    "storeState": "CT",
    "storeMarketSize": 27449,
    "storeLat": 41.740854,
    "storeLong": -72.670695
  },
  {
    "storeName": "West Hartford Pizza #17",
    "storeRating": 4.7,
    "storeId": "06117",
    "storeState": "CT",
    "storeMarketSize": 17267,
    "storeLat": 41.78516,
    "storeLong": -72.763564
  },
  {
    "storeName": "East Hartford Pizza #18",
    "storeRating": 4.2,
    "storeId": "06118",
    "storeState": "CT",
    "storeMarketSize": 26956,
    "storeLat": 41.748702,
    "storeLong": -72.609686
  },
  {
    "storeName": "West Hartford Pizza #19",
    "storeRating": 4.4,
    "storeId": "06119",
    "storeState": "CT",
    "storeMarketSize": 15474,
    "storeLat": 41.763421,
    "storeLong": -72.727208
  },
  {
    "storeName": "Hartford Pizza #20",
    "storeRating": 4.7,
    "storeId": "06120",
    "storeState": "CT",
    "storeMarketSize": 12887,
    "storeLat": 41.790263,
    "storeLong": -72.664259
  },
  {
    "storeName": "Willimantic Pizza #26",
    "storeRating": 4.5,
    "storeId": "06226",
    "storeState": "CT",
    "storeMarketSize": 20114,
    "storeLat": 41.708238,
    "storeLong": -72.208549
  },
  {
    "storeName": "Coventry Pizza #38",
    "storeRating": 4.9,
    "storeId": "06238",
    "storeState": "CT",
    "storeMarketSize": 12428,
    "storeLat": 41.780138,
    "storeLong": -72.343943
  },
  {
    "storeName": "Danielson Pizza #39",
    "storeRating": 4.7,
    "storeId": "06239",
    "storeState": "CT",
    "storeMarketSize": 11183,
    "storeLat": 41.79404,
    "storeLong": -71.854535
  },
  {
    "storeName": "Storrs Mansfield Pizza #68",
    "storeRating": 4.7,
    "storeId": "06268",
    "storeState": "CT",
    "storeMarketSize": 11481,
    "storeLat": 41.800444,
    "storeLong": -72.24803
  },
  {
    "storeName": "New London Pizza #20",
    "storeRating": 4.6,
    "storeId": "06320",
    "storeState": "CT",
    "storeMarketSize": 27617,
    "storeLat": 41.34745,
    "storeLong": -72.101743
  },
  {
    "storeName": "Groton Pizza #40",
    "storeRating": 4.7,
    "storeId": "06340",
    "storeState": "CT",
    "storeMarketSize": 31242,
    "storeLat": 41.357477,
    "storeLong": -72.04178
  },
  {
    "storeName": "Jewett City Pizza #51",
    "storeRating": 4,
    "storeId": "06351",
    "storeState": "CT",
    "storeMarketSize": 16301,
    "storeLat": 41.589788,
    "storeLong": -71.948385
  },
  {
    "storeName": "Mystic Pizza #55",
    "storeRating": 4.7,
    "storeId": "06355",
    "storeState": "CT",
    "storeMarketSize": 12985,
    "storeLat": 41.366899,
    "storeLong": -71.976371
  },
  {
    "storeName": "Niantic Pizza #57",
    "storeRating": 4.3,
    "storeId": "06357",
    "storeState": "CT",
    "storeMarketSize": 12552,
    "storeLat": 41.327149,
    "storeLong": -72.215344
  },
  {
    "storeName": "Norwich Pizza #60",
    "storeRating": 4.5,
    "storeId": "06360",
    "storeState": "CT",
    "storeMarketSize": 37541,
    "storeLat": 41.54786,
    "storeLong": -72.089488
  },
  {
    "storeName": "Uncasville Pizza #82",
    "storeRating": 5,
    "storeId": "06382",
    "storeState": "CT",
    "storeMarketSize": 11947,
    "storeLat": 41.468946,
    "storeLong": -72.122739
  },
  {
    "storeName": "Waterford Pizza #85",
    "storeRating": 4.9,
    "storeId": "06385",
    "storeState": "CT",
    "storeMarketSize": 15893,
    "storeLat": 41.36173,
    "storeLong": -72.156576
  },
  {
    "storeName": "Ansonia Pizza #01",
    "storeRating": 4.8,
    "storeId": "06401",
    "storeState": "CT",
    "storeMarketSize": 19237,
    "storeLat": 41.344249,
    "storeLong": -73.069825
  },
  {
    "storeName": "Branford Pizza #05",
    "storeRating": 4.6,
    "storeId": "06405",
    "storeState": "CT",
    "storeMarketSize": 27860,
    "storeLat": 41.285002,
    "storeLong": -72.793549
  },
  {
    "storeName": "Cheshire Pizza #10",
    "storeRating": 4.7,
    "storeId": "06410",
    "storeState": "CT",
    "storeMarketSize": 29161,
    "storeLat": 41.511827,
    "storeLong": -72.903617
  },
  {
    "storeName": "Clinton Pizza #13",
    "storeRating": 5,
    "storeId": "06413",
    "storeState": "CT",
    "storeMarketSize": 13235,
    "storeLat": 41.29561,
    "storeLong": -72.529125
  },
  {
    "storeName": "Colchester Pizza #15",
    "storeRating": 4.6,
    "storeId": "06415",
    "storeState": "CT",
    "storeMarketSize": 16857,
    "storeLat": 41.550291,
    "storeLong": -72.348616
  },
  {
    "storeName": "Cromwell Pizza #16",
    "storeRating": 4.7,
    "storeId": "06416",
    "storeState": "CT",
    "storeMarketSize": 14005,
    "storeLat": 41.616657,
    "storeLong": -72.661586
  },
  {
    "storeName": "Derby Pizza #18",
    "storeRating": 4.8,
    "storeId": "06418",
    "storeState": "CT",
    "storeMarketSize": 12914,
    "storeLat": 41.326124,
    "storeLong": -73.082574
  },
  {
    "storeName": "East Hampton Pizza #24",
    "storeRating": 4.3,
    "storeId": "06424",
    "storeState": "CT",
    "storeMarketSize": 12808,
    "storeLat": 41.560603,
    "storeLong": -72.502329
  },
  {
    "storeName": "Guilford Pizza #37",
    "storeRating": 4.1,
    "storeId": "06437",
    "storeState": "CT",
    "storeMarketSize": 22375,
    "storeLat": 41.331777,
    "storeLong": -72.696816
  },
  {
    "storeName": "Madison Pizza #43",
    "storeRating": 4.7,
    "storeId": "06443",
    "storeState": "CT",
    "storeMarketSize": 18269,
    "storeLat": 41.344481,
    "storeLong": -72.624521
  },
  {
    "storeName": "Meriden Pizza #50",
    "storeRating": 4.8,
    "storeId": "06450",
    "storeState": "CT",
    "storeMarketSize": 36493,
    "storeLat": 41.535812,
    "storeLong": -72.775686
  },
  {
    "storeName": "Meriden Pizza #51",
    "storeRating": 4.9,
    "storeId": "06451",
    "storeState": "CT",
    "storeMarketSize": 24419,
    "storeLat": 41.541906,
    "storeLong": -72.823409
  },
  {
    "storeName": "Middletown Pizza #57",
    "storeRating": 4.1,
    "storeId": "06457",
    "storeState": "CT",
    "storeMarketSize": 47648,
    "storeLat": 41.548611,
    "storeLong": -72.656784
  },
  {
    "storeName": "Milford Pizza #60",
    "storeRating": 4,
    "storeId": "06460",
    "storeState": "CT",
    "storeMarketSize": 38207,
    "storeLat": 41.214266,
    "storeLong": -73.050812
  },
  {
    "storeName": "Milford Pizza #61",
    "storeRating": 4.3,
    "storeId": "06461",
    "storeState": "CT",
    "storeMarketSize": 14552,
    "storeLat": 41.239863,
    "storeLong": -73.075393
  },
  {
    "storeName": "Monroe Pizza #68",
    "storeRating": 4.9,
    "storeId": "06468",
    "storeState": "CT",
    "storeMarketSize": 19479,
    "storeLat": 41.339236,
    "storeLong": -73.222828
  },
  {
    "storeName": "Newtown Pizza #70",
    "storeRating": 4.8,
    "storeId": "06470",
    "storeState": "CT",
    "storeMarketSize": 16003,
    "storeLat": 41.395083,
    "storeLong": -73.317663
  },
  {
    "storeName": "North Haven Pizza #73",
    "storeRating": 4.1,
    "storeId": "06473",
    "storeState": "CT",
    "storeMarketSize": 24388,
    "storeLat": 41.381459,
    "storeLong": -72.856369
  },
  {
    "storeName": "Old Saybrook Pizza #75",
    "storeRating": 4.8,
    "storeId": "06475",
    "storeState": "CT",
    "storeMarketSize": 10242,
    "storeLat": 41.299897,
    "storeLong": -72.382734
  },
  {
    "storeName": "Orange Pizza #77",
    "storeRating": 4,
    "storeId": "06477",
    "storeState": "CT",
    "storeMarketSize": 13956,
    "storeLat": 41.284951,
    "storeLong": -73.024637
  },
  {
    "storeName": "Oxford Pizza #78",
    "storeRating": 4.4,
    "storeId": "06478",
    "storeState": "CT",
    "storeMarketSize": 12683,
    "storeLat": 41.444001,
    "storeLong": -73.147999
  },
  {
    "storeName": "Plantsville Pizza #79",
    "storeRating": 4.2,
    "storeId": "06479",
    "storeState": "CT",
    "storeMarketSize": 10431,
    "storeLat": 41.57477,
    "storeLong": -72.9119
  },
  {
    "storeName": "Sandy Hook Pizza #82",
    "storeRating": 4.5,
    "storeId": "06482",
    "storeState": "CT",
    "storeMarketSize": 11557,
    "storeLat": 41.408136,
    "storeLong": -73.242485
  },
  {
    "storeName": "Seymour Pizza #83",
    "storeRating": 4.7,
    "storeId": "06483",
    "storeState": "CT",
    "storeMarketSize": 16540,
    "storeLat": 41.385122,
    "storeLong": -73.083525
  },
  {
    "storeName": "Shelton Pizza #84",
    "storeRating": 4.9,
    "storeId": "06484",
    "storeState": "CT",
    "storeMarketSize": 39559,
    "storeLat": 41.304515,
    "storeLong": -73.139041
  },
  {
    "storeName": "Southbury Pizza #88",
    "storeRating": 4,
    "storeId": "06488",
    "storeState": "CT",
    "storeMarketSize": 19904,
    "storeLat": 41.47598,
    "storeLong": -73.229692
  },
  {
    "storeName": "Southington Pizza #89",
    "storeRating": 4.1,
    "storeId": "06489",
    "storeState": "CT",
    "storeMarketSize": 32067,
    "storeLat": 41.614169,
    "storeLong": -72.869926
  },
  {
    "storeName": "Wallingford Pizza #92",
    "storeRating": 4.6,
    "storeId": "06492",
    "storeState": "CT",
    "storeMarketSize": 45241,
    "storeLat": 41.458657,
    "storeLong": -72.804516
  },
  {
    "storeName": "New Haven Pizza #11",
    "storeRating": 4.1,
    "storeId": "06511",
    "storeState": "CT",
    "storeMarketSize": 53600,
    "storeLat": 41.31703,
    "storeLong": -72.927316
  },
  {
    "storeName": "East Haven Pizza #12",
    "storeRating": 4.2,
    "storeId": "06512",
    "storeState": "CT",
    "storeMarketSize": 29861,
    "storeLat": 41.278274,
    "storeLong": -72.875249
  },
  {
    "storeName": "New Haven Pizza #13",
    "storeRating": 5,
    "storeId": "06513",
    "storeState": "CT",
    "storeMarketSize": 38978,
    "storeLat": 41.316688,
    "storeLong": -72.870791
  },
  {
    "storeName": "Hamden Pizza #14",
    "storeRating": 4.9,
    "storeId": "06514",
    "storeState": "CT",
    "storeMarketSize": 26265,
    "storeLat": 41.376089,
    "storeLong": -72.943351
  },
  {
    "storeName": "New Haven Pizza #15",
    "storeRating": 4.5,
    "storeId": "06515",
    "storeState": "CT",
    "storeMarketSize": 17141,
    "storeLat": 41.328039,
    "storeLong": -72.97084
  },
  {
    "storeName": "West Haven Pizza #16",
    "storeRating": 4.3,
    "storeId": "06516",
    "storeState": "CT",
    "storeMarketSize": 55564,
    "storeLat": 41.272573,
    "storeLong": -72.964967
  },
  {
    "storeName": "Hamden Pizza #17",
    "storeRating": 4.8,
    "storeId": "06517",
    "storeState": "CT",
    "storeMarketSize": 14853,
    "storeLat": 41.34944,
    "storeLong": -72.907149
  },
  {
    "storeName": "Hamden Pizza #18",
    "storeRating": 5,
    "storeId": "06518",
    "storeState": "CT",
    "storeMarketSize": 19848,
    "storeLat": 41.430832,
    "storeLong": -72.912021
  },
  {
    "storeName": "New Haven Pizza #19",
    "storeRating": 4.3,
    "storeId": "06519",
    "storeState": "CT",
    "storeMarketSize": 16428,
    "storeLat": 41.293934,
    "storeLong": -72.932028
  },
  {
    "storeName": "Bridgeport Pizza #04",
    "storeRating": 4.9,
    "storeId": "06604",
    "storeState": "CT",
    "storeMarketSize": 30313,
    "storeLat": 41.18292,
    "storeLong": -73.208027
  },
  {
    "storeName": "Bridgeport Pizza #05",
    "storeRating": 4.2,
    "storeId": "06605",
    "storeState": "CT",
    "storeMarketSize": 23397,
    "storeLat": 41.161599,
    "storeLong": -73.217622
  },
  {
    "storeName": "Bridgeport Pizza #06",
    "storeRating": 4.1,
    "storeId": "06606",
    "storeState": "CT",
    "storeMarketSize": 46236,
    "storeLat": 41.21211,
    "storeLong": -73.206673
  },
  {
    "storeName": "Bridgeport Pizza #08",
    "storeRating": 4.3,
    "storeId": "06608",
    "storeState": "CT",
    "storeMarketSize": 13671,
    "storeLat": 41.186475,
    "storeLong": -73.181251
  },
  {
    "storeName": "Bridgeport Pizza #10",
    "storeRating": 4.7,
    "storeId": "06610",
    "storeState": "CT",
    "storeMarketSize": 22735,
    "storeLat": 41.209283,
    "storeLong": -73.164603
  },
  {
    "storeName": "Trumbull Pizza #11",
    "storeRating": 4.8,
    "storeId": "06611",
    "storeState": "CT",
    "storeMarketSize": 36091,
    "storeLat": 41.267861,
    "storeLong": -73.213691
  },
  {
    "storeName": "Stratford Pizza #14",
    "storeRating": 4.6,
    "storeId": "06614",
    "storeState": "CT",
    "storeMarketSize": 32929,
    "storeLat": 41.232466,
    "storeLong": -73.129873
  },
  {
    "storeName": "Stratford Pizza #15",
    "storeRating": 4.5,
    "storeId": "06615",
    "storeState": "CT",
    "storeMarketSize": 18453,
    "storeLat": 41.171614,
    "storeLong": -73.13216
  },
  {
    "storeName": "Waterbury Pizza #04",
    "storeRating": 4.7,
    "storeId": "06704",
    "storeState": "CT",
    "storeMarketSize": 25139,
    "storeLat": 41.588692,
    "storeLong": -73.03539
  },
  {
    "storeName": "Waterbury Pizza #05",
    "storeRating": 4.4,
    "storeId": "06705",
    "storeState": "CT",
    "storeMarketSize": 27122,
    "storeLat": 41.547103,
    "storeLong": -72.992727
  },
  {
    "storeName": "Waterbury Pizza #06",
    "storeRating": 4.1,
    "storeId": "06706",
    "storeState": "CT",
    "storeMarketSize": 14324,
    "storeLat": 41.532212,
    "storeLong": -73.025096
  },
  {
    "storeName": "Waterbury Pizza #08",
    "storeRating": 4.7,
    "storeId": "06708",
    "storeState": "CT",
    "storeMarketSize": 29418,
    "storeLat": 41.550872,
    "storeLong": -73.068653
  },
  {
    "storeName": "Waterbury Pizza #10",
    "storeRating": 4.4,
    "storeId": "06710",
    "storeState": "CT",
    "storeMarketSize": 10715,
    "storeLat": 41.569145,
    "storeLong": -73.045817
  },
  {
    "storeName": "Wolcott Pizza #16",
    "storeRating": 4.6,
    "storeId": "06716",
    "storeState": "CT",
    "storeMarketSize": 16680,
    "storeLat": 41.595705,
    "storeLong": -72.969384
  },
  {
    "storeName": "Naugatuck Pizza #70",
    "storeRating": 4.7,
    "storeId": "06770",
    "storeState": "CT",
    "storeMarketSize": 31975,
    "storeLat": 41.488428,
    "storeLong": -73.053383
  },
  {
    "storeName": "New Milford Pizza #76",
    "storeRating": 4.3,
    "storeId": "06776",
    "storeState": "CT",
    "storeMarketSize": 26889,
    "storeLat": 41.60132,
    "storeLong": -73.422832
  },
  {
    "storeName": "Torrington Pizza #90",
    "storeRating": 4.1,
    "storeId": "06790",
    "storeState": "CT",
    "storeMarketSize": 36482,
    "storeLat": 41.834052,
    "storeLong": -73.131413
  },
  {
    "storeName": "Watertown Pizza #95",
    "storeRating": 4.8,
    "storeId": "06795",
    "storeState": "CT",
    "storeMarketSize": 14144,
    "storeLat": 41.623892,
    "storeLong": -73.126195
  },
  {
    "storeName": "Bethel Pizza #01",
    "storeRating": 4,
    "storeId": "06801",
    "storeState": "CT",
    "storeMarketSize": 18581,
    "storeLat": 41.369778,
    "storeLong": -73.389503
  },
  {
    "storeName": "Brookfield Pizza #04",
    "storeRating": 4.9,
    "storeId": "06804",
    "storeState": "CT",
    "storeMarketSize": 16466,
    "storeLat": 41.469885,
    "storeLong": -73.393667
  },
  {
    "storeName": "Danbury Pizza #10",
    "storeRating": 4.3,
    "storeId": "06810",
    "storeState": "CT",
    "storeMarketSize": 49482,
    "storeLat": 41.374284,
    "storeLong": -73.457611
  },
  {
    "storeName": "Danbury Pizza #11",
    "storeRating": 4.7,
    "storeId": "06811",
    "storeState": "CT",
    "storeMarketSize": 31400,
    "storeLat": 41.422586,
    "storeLong": -73.478364
  },
  {
    "storeName": "New Fairfield Pizza #12",
    "storeRating": 4.6,
    "storeId": "06812",
    "storeState": "CT",
    "storeMarketSize": 13881,
    "storeLat": 41.480318,
    "storeLong": -73.486863
  },
  {
    "storeName": "Darien Pizza #20",
    "storeRating": 4.1,
    "storeId": "06820",
    "storeState": "CT",
    "storeMarketSize": 20732,
    "storeLat": 41.076202,
    "storeLong": -73.48008
  },
  {
    "storeName": "Fairfield Pizza #24",
    "storeRating": 4.2,
    "storeId": "06824",
    "storeState": "CT",
    "storeMarketSize": 33900,
    "storeLat": 41.173039,
    "storeLong": -73.280818
  },
  {
    "storeName": "Fairfield Pizza #25",
    "storeRating": 5,
    "storeId": "06825",
    "storeState": "CT",
    "storeMarketSize": 21123,
    "storeLat": 41.196583,
    "storeLong": -73.243254
  },
  {
    "storeName": "Greenwich Pizza #30",
    "storeRating": 4.1,
    "storeId": "06830",
    "storeState": "CT",
    "storeMarketSize": 24027,
    "storeLat": 41.037605,
    "storeLong": -73.624339
  },
  {
    "storeName": "Greenwich Pizza #31",
    "storeRating": 5,
    "storeId": "06831",
    "storeState": "CT",
    "storeMarketSize": 14792,
    "storeLat": 41.088724,
    "storeLong": -73.658838
  },
  {
    "storeName": "New Canaan Pizza #40",
    "storeRating": 4.8,
    "storeId": "06840",
    "storeState": "CT",
    "storeMarketSize": 19738,
    "storeLat": 41.160393,
    "storeLong": -73.500124
  },
  {
    "storeName": "Norwalk Pizza #50",
    "storeRating": 4.9,
    "storeId": "06850",
    "storeState": "CT",
    "storeMarketSize": 18078,
    "storeLat": 41.126683,
    "storeLong": -73.447459
  },
  {
    "storeName": "Norwalk Pizza #51",
    "storeRating": 4.6,
    "storeId": "06851",
    "storeState": "CT",
    "storeMarketSize": 26703,
    "storeLat": 41.138233,
    "storeLong": -73.401526
  },
  {
    "storeName": "Norwalk Pizza #54",
    "storeRating": 4.8,
    "storeId": "06854",
    "storeState": "CT",
    "storeMarketSize": 29100,
    "storeLat": 41.08391,
    "storeLong": -73.426615
  },
  {
    "storeName": "Ridgefield Pizza #77",
    "storeRating": 4.9,
    "storeId": "06877",
    "storeState": "CT",
    "storeMarketSize": 24677,
    "storeLat": 41.310803,
    "storeLong": -73.499837
  },
  {
    "storeName": "Westport Pizza #80",
    "storeRating": 4.3,
    "storeId": "06880",
    "storeState": "CT",
    "storeMarketSize": 26647,
    "storeLat": 41.133275,
    "storeLong": -73.348699
  },
  {
    "storeName": "Weston Pizza #83",
    "storeRating": 4.6,
    "storeId": "06883",
    "storeState": "CT",
    "storeMarketSize": 10179,
    "storeLat": 41.22742,
    "storeLong": -73.366988
  },
  {
    "storeName": "Wilton Pizza #97",
    "storeRating": 4.9,
    "storeId": "06897",
    "storeState": "CT",
    "storeMarketSize": 18071,
    "storeLat": 41.211277,
    "storeLong": -73.440974
  },
  {
    "storeName": "Stamford Pizza #02",
    "storeRating": 4.7,
    "storeId": "06902",
    "storeState": "CT",
    "storeMarketSize": 63406,
    "storeLat": 41.059347,
    "storeLong": -73.544384
  },
  {
    "storeName": "Stamford Pizza #03",
    "storeRating": 4.6,
    "storeId": "06903",
    "storeState": "CT",
    "storeMarketSize": 14499,
    "storeLat": 41.136018,
    "storeLong": -73.571142
  },
  {
    "storeName": "Stamford Pizza #05",
    "storeRating": 4.2,
    "storeId": "06905",
    "storeState": "CT",
    "storeMarketSize": 19649,
    "storeLat": 41.088293,
    "storeLong": -73.542669
  },
  {
    "storeName": "Avenel Pizza #01",
    "storeRating": 4.9,
    "storeId": "07001",
    "storeState": "NJ",
    "storeMarketSize": 16305,
    "storeLat": 40.582316,
    "storeLong": -74.271506
  },
  {
    "storeName": "Bayonne Pizza #02",
    "storeRating": 4.9,
    "storeId": "07002",
    "storeState": "NJ",
    "storeMarketSize": 63031,
    "storeLat": 40.662338,
    "storeLong": -74.110275
  },
  {
    "storeName": "Bloomfield Pizza #03",
    "storeRating": 4.4,
    "storeId": "07003",
    "storeState": "NJ",
    "storeMarketSize": 47312,
    "storeLat": 40.809128,
    "storeLong": -74.187155
  },
  {
    "storeName": "Boonton Pizza #05",
    "storeRating": 4.2,
    "storeId": "07005",
    "storeState": "NJ",
    "storeMarketSize": 15269,
    "storeLat": 40.932771,
    "storeLong": -74.417304
  },
  {
    "storeName": "Caldwell Pizza #06",
    "storeRating": 4.6,
    "storeId": "07006",
    "storeState": "NJ",
    "storeMarketSize": 24812,
    "storeLat": 40.851187,
    "storeLong": -74.282865
  },
  {
    "storeName": "Carteret Pizza #08",
    "storeRating": 4.4,
    "storeId": "07008",
    "storeState": "NJ",
    "storeMarketSize": 22844,
    "storeLat": 40.58379,
    "storeLong": -74.227457
  },